

GET case_person/_mapping
GET hospital/_mapping
GET province_bak/_mapping

//当然新增：当日确诊人数
GET case_person/_search
{
  "query": {
    "bool": {
      "must": [
        {
          "range": {
            "date": {
              "gte": "2022-06-29"
            }
          }
        },
        {
          "term": {
            "status.keyword": {
              "value": "确诊"
            }
          }
        }
      ]
    }
  },
  "aggs": {
    "total_add": {
      "value_count": {
        "field": "status.keyword"
      }
    }
  }
}
//查看周边确诊
GET case_person/_search
{
  "query": {
    "geo_distance": {
      "distance": "3km",
      "location": {
        "lat": 39.900112,
        "lon": 116.238334
      }
    }
  }
}

//查看附近核酸检测点
GET hospital/_search
{
  "query": {
    "geo_distance": {
      "distance": "3km",
      "location": {
        "lat": 39.900112,
        "lon": 116.238334
      }
    }
  }
}


//搜索海淀区附近的的医院
GET hospital/_search
{
  "query": {
    "geo_shape": {
      "location": {
        "indexed_shape": {
          "index": "province_bak",
          "id": "110108",
          "path":"location"
        },
        "relation": "within"
      }
    }
  }
}


PUT province_bak
{
  "mappings": {
    "properties": {
      "location": {
        "type": "geo_shape"
      },
      "code":{
        "type": "text",
        "fields": {
          "keyword":{
            "type":"keyword"
          }
        }
      },
      "name":{
        "type": "text",
        "fields": {
          "keyword":{
            "type":"keyword"
          }
        }
      }
    }
  }
}

PUT hospital
{
  "mappings": {
    "properties" : {
      "address" : {
        "type" : "text",
        "fields" : {
          "keyword" : {
            "type" : "keyword",
            "ignore_above" : 256
          }
        }
      },
      "district" : {
        "type" : "text",
        "fields" : {
          "keyword" : {
            "type" : "keyword",
            "ignore_above" : 256
          }
        }
      },
      "location" : {
        "type" : "geo_shape"
      },
      "lv" : {
        "type" : "text",
        "fields" : {
          "keyword" : {
            "type" : "keyword",
            "ignore_above" : 256
          }
        }
      },
      "name" : {
        "type" : "text",
        "fields" : {
          "keyword" : {
            "type" : "keyword",
            "ignore_above" : 256
          }
        }
      }
    }
  }
}


PUT case_person
{
  "mappings": {
    "properties": {
      "date": {
        "type": "date"
      },
      "location": {
        "type": "geo_shape"
      },
      "name": {
        "type": "text",
        "fields": {
          "keyword": {
            "type": "keyword",
            "ignore_above": 256
          }
        }
      },
      "status": {
        "type": "text",
        "fields": {
          "keyword": {
            "type": "keyword",
            "ignore_above": 256
          }
        }
      }
    }
  }
}


POST case_person/_bulk?filter_path=items.*.error
{"create":{}}
{"name":"苹果园","location":{"type":"point","coordinates":[116.171617869722,39.9250273615711]},"date":"2022-06-29","status":"确诊"}
{"create":{}}
{"name":"古城","location":{"type":"point","coordinates":[116.184121327649,39.9059270821854]},"date":"2022-06-29","status":"确诊"}
{"create":{}}
{"name":"八角游乐园","location":{"type":"point","coordinates":[116.206747875736,39.9061920414326]},"date":"2022-06-29","status":"确诊"}
{"create":{}}
{"name":"八宝山","location":{"type":"point","coordinates":[116.229785252045,39.9060481817748]},"date":"2022-06-29","status":"确诊"}
{"create":{}}
{"name":"玉泉路","location":{"type":"point","coordinates":[116.247003894328,39.9061172389878]},"date":"2022-06-29","status":"确诊"}
{"create":{}}
{"name":"五棵松","location":{"type":"point","coordinates":[116.267981187692,39.9065999752304]},"date":"2022-06-29","status":"确诊"}
{"create":{}}
{"name":"万寿路","location":{"type":"point","coordinates":[116.289110376894,39.9061790472268]},"date":"2022-06-29","status":"确诊"}
{"create":{}}
{"name":"公主坟","location":{"type":"point","coordinates":[116.303673509183,39.9061547712437]},"date":"2022-06-29","status":"确诊"}
{"create":{}}
{"name":"军事博物馆","location":{"type":"point","coordinates":[116.317889967687,39.9061611294864]},"date":"2022-06-29","status":"确诊"}
{"create":{}}
{"name":"木樨地","location":{"type":"point","coordinates":[116.331291720535,39.9063000499134]},"date":"2022-06-29","status":"确诊"}
{"create":{}}
{"name":"南礼士路","location":{"type":"point","coordinates":[116.3464080893,39.9058448458506]},"date":"2022-06-29","status":"确诊"}
{"create":{}}
{"name":"复兴门","location":{"type":"point","coordinates":[116.350348487369,39.9058054290147]},"date":"2022-06-29","status":"确诊"}
{"create":{}}
{"name":"西单","location":{"type":"point","coordinates":[116.368043302724,39.9060443829363]},"date":"2022-06-29","status":"确诊"}
{"create":{}}
{"name":"天安门西","location":{"type":"point","coordinates":[116.385493677041,39.9060633427553]},"date":"2022-06-29","status":"确诊"}
{"create":{}}
{"name":"天安门东","location":{"type":"point","coordinates":[116.395404726048,39.9063241813207]},"date":"2022-06-29","status":"确诊"}
{"create":{}}
{"name":"王府井","location":{"type":"point","coordinates":[116.405321173592,39.9066222211707]},"date":"2022-06-29","status":"确诊"}
{"create":{}}
{"name":"东单","location":{"type":"point","coordinates":[116.411677492655,39.9067902643747]},"date":"2022-06-29","status":"确诊"}
{"create":{}}
{"name":"建国门","location":{"type":"point","coordinates":[116.429599048363,39.9071388299273]},"date":"2022-06-29","status":"确诊"}
{"create":{}}
{"name":"永安里","location":{"type":"point","coordinates":[116.444309926454,39.9070330491477]},"date":"2022-06-29","status":"确诊"}
{"create":{}}
{"name":"国贸","location":{"type":"point","coordinates":[116.455758344831,39.9078156656335]},"date":"2022-06-29","status":"确诊"}
{"create":{}}
{"name":"大望路","location":{"type":"point","coordinates":[116.471001490262,39.907229896587]},"date":"2022-06-29","status":"确诊"}
{"create":{}}
{"name":"四惠","location":{"type":"point","coordinates":[116.489437455948,39.9074807764588]},"date":"2022-06-29","status":"确诊"}
{"create":{}}
{"name":"四惠东","location":{"type":"point","coordinates":[116.509382092018,39.9073422751558]},"date":"2022-06-29","status":"确诊"}
{"create":{}}
{"name":"北京站","location":{"type":"point","coordinates":[116.421044778828,39.9035726295958]},"date":"2022-06-29","status":"确诊"}
{"create":{}}
{"name":"崇文门","location":{"type":"point","coordinates":[116.410647497554,39.8995802097562]},"date":"2022-06-29","status":"确诊"}
{"create":{}}
{"name":"前门","location":{"type":"point","coordinates":[116.391715259269,39.8985555391153]},"date":"2022-06-29","status":"确诊"}
{"create":{}}
{"name":"和平门","location":{"type":"point","coordinates":[116.377946737001,39.8986939151274]},"date":"2022-06-29","status":"确诊"}
{"create":{}}
{"name":"宣武门","location":{"type":"point","coordinates":[116.368087149518,39.8982752161578]},"date":"2022-06-29","status":"确诊"}
{"create":{}}
{"name":"长椿街","location":{"type":"point","coordinates":[116.356860599684,39.8982567616434]},"date":"2022-06-29","status":"确诊"}
{"create":{}}
{"name":"阜成门","location":{"type":"point","coordinates":[116.349789611289,39.9220331363173]},"date":"2022-06-29","status":"确诊"}
{"create":{}}
{"name":"车公庄","location":{"type":"point","coordinates":[116.349617161185,39.9308857852266]},"date":"2022-06-29","status":"确诊"}
{"create":{}}
{"name":"西直门","location":{"type":"point","coordinates":[116.349273469643,39.9390795306673]},"date":"2022-06-29","status":"确诊"}
{"create":{}}
{"name":"积水潭","location":{"type":"point","coordinates":[116.366966602082,39.9473455243209]},"date":"2022-06-29","status":"确诊"}
{"create":{}}
{"name":"鼓楼大街","location":{"type":"point","coordinates":[116.387590442974,39.9464083103829]},"date":"2022-06-29","status":"确诊"}
{"create":{}}
{"name":"安定门","location":{"type":"point","coordinates":[116.402052751892,39.9477233345237]},"date":"2022-06-29","status":"确诊"}
{"create":{}}
{"name":"雍和宫","location":{"type":"point","coordinates":[116.41072724808,39.9478588211103]},"date":"2022-06-29","status":"确诊"}
{"create":{}}
{"name":"东直门","location":{"type":"point","coordinates":[116.42744510232,39.9397494476908]},"date":"2022-06-29","status":"确诊"}
{"create":{}}
{"name":"东四十条","location":{"type":"point","coordinates":[116.427789979275,39.9324781807258]},"date":"2022-06-29","status":"确诊"}
{"create":{}}
{"name":"朝阳门","location":{"type":"point","coordinates":[116.428393043704,39.9235610433056]},"date":"2022-06-29","status":"确诊"}
{"create":{}}
{"name":"安河桥北","location":{"type":"point","coordinates":[116.263937412673,40.0106275306439]},"date":"2022-06-29","status":"确诊"}
{"create":{}}
{"name":"北宫门","location":{"type":"point","coordinates":[116.271635091496,40.0011211701716]},"date":"2022-06-29","status":"确诊"}
{"create":{}}
{"name":"西苑","location":{"type":"point","coordinates":[116.284857412126,39.9970779929976]},"date":"2022-06-29","status":"确诊"}
{"create":{}}
{"name":"圆明园","location":{"type":"point","coordinates":[116.303576308405,39.9982146897892]},"date":"2022-06-29","status":"确诊"}
{"create":{}}
{"name":"北京大学东门","location":{"type":"point","coordinates":[116.309786546194,39.9908556021658]},"date":"2022-06-29","status":"确诊"}
{"create":{}}
{"name":"中关村","location":{"type":"point","coordinates":[116.310365669221,39.9825524523361]},"date":"2022-06-29","status":"确诊"}
{"create":{}}
{"name":"海淀黄庄","location":{"type":"point","coordinates":[116.311458615304,39.9743459748318]},"date":"2022-06-29","status":"确诊"}
{"create":{}}
{"name":"人民大学","location":{"type":"point","coordinates":[116.315227722508,39.9661005288986]},"date":"2022-06-29","status":"确诊"}
{"create":{}}
{"name":"魏公村","location":{"type":"point","coordinates":[116.317155735072,39.956508899772]},"date":"2022-06-29","status":"确诊"}
{"create":{}}
{"name":"国家图书馆","location":{"type":"point","coordinates":[116.319062948093,39.9418987205823]},"date":"2022-06-29","status":"确诊"}
{"create":{}}
{"name":"动物园","location":{"type":"point","coordinates":[116.332658048794,39.9368715812911]},"date":"2022-06-29","status":"确诊"}
{"create":{}}
{"name":"新街口","location":{"type":"point","coordinates":[116.361568273237,39.9391270982248]},"date":"2022-06-29","status":"确诊"}
{"create":{}}
{"name":"平安里","location":{"type":"point","coordinates":[116.366668526013,39.9322767350894]},"date":"2022-06-29","status":"确诊"}
{"create":{}}
{"name":"西四","location":{"type":"point","coordinates":[116.367183962525,39.9231935838039]},"date":"2022-06-29","status":"确诊"}
{"create":{}}
{"name":"灵境胡同","location":{"type":"point","coordinates":[116.367527902809,39.9147018939964]},"date":"2022-06-29","status":"确诊"}
{"create":{}}
{"name":"菜市口","location":{"type":"point","coordinates":[116.367702721333,39.8880691293071]},"date":"2022-06-29","status":"确诊"}
{"create":{}}
{"name":"陶然亭","location":{"type":"point","coordinates":[116.368132693191,39.8771526039311]},"date":"2022-06-29","status":"确诊"}
{"create":{}}
{"name":"北京南站","location":{"type":"point","coordinates":[116.373063719279,39.8634630235495]},"date":"2022-06-29","status":"确诊"}
{"create":{}}
{"name":"马家堡","location":{"type":"point","coordinates":[116.365050262705,39.8518435122627]},"date":"2022-06-29","status":"确诊"}
{"create":{}}
{"name":"角门西","location":{"type":"point","coordinates":[116.364922627928,39.8445462567601]},"date":"2022-06-29","status":"确诊"}
{"create":{}}
{"name":"公益西桥","location":{"type":"point","coordinates":[116.36462378527,39.8356420985402]},"date":"2022-06-29","status":"确诊"}
{"create":{}}
{"name":"天通苑北","location":{"type":"point","coordinates":[116.406715827714,40.0819810547415]},"date":"2022-06-29","status":"确诊"}
{"create":{}}
{"name":"天通苑","location":{"type":"point","coordinates":[116.406845710275,40.0738052839741]},"date":"2022-06-29","status":"确诊"}
{"create":{}}
{"name":"天通苑南","location":{"type":"point","coordinates":[116.406675076467,40.0649058626556]},"date":"2022-06-29","status":"确诊"}
{"create":{}}
{"name":"立水桥","location":{"type":"point","coordinates":[116.405989686078,40.0516692728811]},"date":"2022-06-29","status":"确诊"}
{"create":{}}
{"name":"立水桥南","location":{"type":"point","coordinates":[116.408396055587,40.0404355991994]},"date":"2022-06-29","status":"确诊"}
{"create":{}}
{"name":"北苑路北","location":{"type":"point","coordinates":[116.411790734564,40.0291023807378]},"date":"2022-06-29","status":"确诊"}
{"create":{}}
{"name":"大屯路东","location":{"type":"point","coordinates":[116.41108538772,40.0023988617111]},"date":"2022-06-29","status":"确诊"}
{"create":{}}
{"name":"惠新西街北口","location":{"type":"point","coordinates":[116.410819007153,39.9861087464573]},"date":"2022-06-29","status":"确诊"}
{"create":{}}
{"name":"惠新西街南口","location":{"type":"point","coordinates":[116.411217679972,39.9755949032401]},"date":"2022-06-29","status":"确诊"}
{"create":{}}
{"name":"和平西桥","location":{"type":"point","coordinates":[116.411728858649,39.9671309941501]},"date":"2022-06-29","status":"确诊"}
{"create":{}}
{"name":"和平里北街","location":{"type":"point","coordinates":[116.412264427132,39.9570070027487]},"date":"2022-06-29","status":"确诊"}
{"create":{}}
{"name":"北新桥","location":{"type":"point","coordinates":[116.410631674388,39.939460985147]},"date":"2022-06-29","status":"确诊"}
{"create":{}}
{"name":"张自忠路","location":{"type":"point","coordinates":[116.410906423735,39.9322593144453]},"date":"2022-06-29","status":"确诊"}
{"create":{}}
{"name":"东四","location":{"type":"point","coordinates":[116.411255271944,39.9229702686039]},"date":"2022-06-29","status":"确诊"}
{"create":{}}
{"name":"灯市口","location":{"type":"point","coordinates":[116.411550159463,39.9158172939795]},"date":"2022-06-29","status":"确诊"}
{"create":{}}
{"name":"磁器口","location":{"type":"point","coordinates":[116.412491566795,39.8917251968969]},"date":"2022-06-29","status":"确诊"}
{"create":{}}
{"name":"天坛东门","location":{"type":"point","coordinates":[116.414599254564,39.881668553715]},"date":"2022-06-29","status":"确诊"}
{"create":{}}
{"name":"蒲黄榆","location":{"type":"point","coordinates":[116.415334539544,39.8642708627307]},"date":"2022-06-29","status":"确诊"}
{"create":{}}
{"name":"刘家窑","location":{"type":"point","coordinates":[116.415899480972,39.856252575425]},"date":"2022-06-29","status":"确诊"}
{"create":{}}
{"name":"宋家庄","location":{"type":"point","coordinates":[116.422159028669,39.8444009829242]},"date":"2022-06-29","status":"确诊"}
{"create":{}}
{"name":"海淀五路居","location":{"type":"point","coordinates":[116.270722070086,39.9313472601228]},"date":"2022-06-29","status":"确诊"}
{"create":{}}
{"name":"慈寿寺","location":{"type":"point","coordinates":[116.289107173676,39.9318339883253]},"date":"2022-06-29","status":"确诊"}
{"create":{}}
{"name":"花园桥","location":{"type":"point","coordinates":[116.304007632295,39.9310933987936]},"date":"2022-06-29","status":"确诊"}
{"create":{}}
{"name":"白石桥南","location":{"type":"point","coordinates":[116.319342541497,39.9317166023947]},"date":"2022-06-29","status":"确诊"}
{"create":{}}
{"name":"车公庄西","location":{"type":"point","coordinates":[116.337811877327,39.9311293882001]},"date":"2022-06-29","status":"确诊"}
{"create":{}}
{"name":"北海北","location":{"type":"point","coordinates":[116.380461726676,39.9318732919808]},"date":"2022-06-29","status":"确诊"}
{"create":{}}
{"name":"南锣鼓巷","location":{"type":"point","coordinates":[116.397000199632,39.9317322088866]},"date":"2022-06-29","status":"确诊"}
{"create":{}}
{"name":"东大桥","location":{"type":"point","coordinates":[116.445526389693,39.9215281129228]},"date":"2022-06-29","status":"确诊"}
{"create":{}}
{"name":"呼家楼","location":{"type":"point","coordinates":[116.455697379151,39.9218697981783]},"date":"2022-06-29","status":"确诊"}
{"create":{}}
{"name":"金台路","location":{"type":"point","coordinates":[116.471995664689,39.9215297838513]},"date":"2022-06-29","status":"确诊"}
{"create":{}}
{"name":"十里堡","location":{"type":"point","coordinates":[116.495897481571,39.9218526592737]},"date":"2022-06-29","status":"确诊"}
{"create":{}}
{"name":"青年路","location":{"type":"point","coordinates":[116.511609227301,39.9219913601834]},"date":"2022-06-29","status":"确诊"}
{"create":{}}
{"name":"褡裢坡","location":{"type":"point","coordinates":[116.557625966262,39.9229562242586]},"date":"2022-06-29","status":"确诊"}
{"create":{}}
{"name":"黄渠","location":{"type":"point","coordinates":[116.572419349831,39.9231218276922]},"date":"2022-06-29","status":"确诊"}
{"create":{}}
{"name":"常营","location":{"type":"point","coordinates":[116.593753800938,39.9247178765317]},"date":"2022-06-29","status":"确诊"}
{"create":{}}
{"name":"草房","location":{"type":"point","coordinates":[116.609667994541,39.9233823545553]},"date":"2022-06-29","status":"确诊"}
{"create":{}}
{"name":"俸伯","location":{"type":"point","coordinates":[116.678961703349,40.1313997606749]},"date":"2022-06-29","status":"确诊"}
{"create":{}}
{"name":"顺义","location":{"type":"point","coordinates":[116.650942409227,40.1291317583509]},"date":"2022-06-29","status":"确诊"}
{"create":{}}
{"name":"石门","location":{"type":"point","coordinates":[116.635462740132,40.1287563655949]},"date":"2022-06-29","status":"确诊"}
{"create":{}}
{"name":"南法信","location":{"type":"point","coordinates":[116.60361471131,40.1273389703224]},"date":"2022-06-29","status":"确诊"}
{"create":{}}
{"name":"后沙峪","location":{"type":"point","coordinates":[116.558398098137,40.113010710826]},"date":"2022-06-29","status":"确诊"}
{"create":{}}
{"name":"花梨坎","location":{"type":"point","coordinates":[116.551801684223,40.0833101809422]},"date":"2022-06-29","status":"确诊"}
{"create":{}}
{"name":"国展","location":{"type":"point","coordinates":[116.549319747809,40.0690550784455]},"date":"2022-06-29","status":"确诊"}
{"create":{}}
{"name":"孙河","location":{"type":"point","coordinates":[116.528710952946,40.0439982509876]},"date":"2022-06-29","status":"确诊"}
{"create":{}}
{"name":"马泉营","location":{"type":"point","coordinates":[116.497811473183,40.0325522721697]},"date":"2022-06-29","status":"确诊"}
{"create":{}}
{"name":"崔各庄","location":{"type":"point","coordinates":[116.486870891143,40.0209611839141]},"date":"2022-06-29","status":"确诊"}
{"create":{}}
{"name":"望京","location":{"type":"point","coordinates":[116.463658394424,39.997402832225]},"date":"2022-06-29","status":"确诊"}
{"create":{}}
{"name":"望京西","location":{"type":"point","coordinates":[116.44540684984,39.9946310835163]},"date":"2022-06-29","status":"确诊"}
{"create":{}}
{"name":"张郭庄","location":{"type":"point","coordinates":[116.181029304088,39.857037305703]},"date":"2022-06-29","status":"确诊"}
{"create":{}}
{"name":"园博园","location":{"type":"point","coordinates":[116.195829359621,39.8599772329824]},"date":"2022-06-29","status":"确诊"}
{"create":{}}
{"name":"大瓦窑","location":{"type":"point","coordinates":[116.233549618816,39.8583679024538]},"date":"2022-06-29","status":"确诊"}
{"create":{}}
{"name":"郭庄子","location":{"type":"point","coordinates":[116.247116525974,39.8631642328763]},"date":"2022-06-29","status":"确诊"}
{"create":{}}
{"name":"大井","location":{"type":"point","coordinates":[116.270274929253,39.8639806991273]},"date":"2022-06-29","status":"确诊"}
{"create":{}}
{"name":"七里庄","location":{"type":"point","coordinates":[116.288154078737,39.8662815099918]},"date":"2022-06-29","status":"确诊"}
{"create":{}}
{"name":"西局","location":{"type":"point","coordinates":[116.298303746899,39.8652184194151]},"date":"2022-06-29","status":"确诊"}
{"create":{}}
{"name":"泥洼","location":{"type":"point","coordinates":[116.298310119664,39.8570535527422]},"date":"2022-06-29","status":"确诊"}
{"create":{}}
{"name":"丰台站","location":{"type":"point","coordinates":[116.298937565447,39.8485901655788]},"date":"2022-06-29","status":"确诊"}
{"create":{}}
{"name":"首经贸","location":{"type":"point","coordinates":[116.314097765627,39.8431551709307]},"date":"2022-06-29","status":"确诊"}
{"create":{}}
{"name":"纪家庙","location":{"type":"point","coordinates":[116.327119609531,39.8430972517315]},"date":"2022-06-29","status":"确诊"}
{"create":{}}
{"name":"草桥","location":{"type":"point","coordinates":[116.34497575513,39.8445924212626]},"date":"2022-06-29","status":"确诊"}
{"create":{}}
{"name":"角门西","location":{"type":"point","coordinates":[116.364936017721,39.8445606548979]},"date":"2022-06-29","status":"确诊"}
{"create":{}}
{"name":"角门东","location":{"type":"point","coordinates":[116.378725538582,39.8437502013922]},"date":"2022-06-29","status":"确诊"}
{"create":{}}
{"name":"大红门","location":{"type":"point","coordinates":[116.392593796881,39.8439745628567]},"date":"2022-06-29","status":"确诊"}
{"create":{}}
{"name":"石榴庄","location":{"type":"point","coordinates":[116.407755385648,39.8445043169485]},"date":"2022-06-29","status":"确诊"}
{"create":{}}
{"name":"成寿寺","location":{"type":"point","coordinates":[116.441236082888,39.8445087741286]},"date":"2022-06-29","status":"确诊"}
{"create":{}}
{"name":"分钟寺","location":{"type":"point","coordinates":[116.447818834516,39.8505307122691]},"date":"2022-06-29","status":"确诊"}
{"create":{}}
{"name":"十里河","location":{"type":"point","coordinates":[116.452868910233,39.8644761101803]},"date":"2022-06-29","status":"确诊"}
{"create":{}}
{"name":"潘家园","location":{"type":"point","coordinates":[116.454627192506,39.8741427046179]},"date":"2022-06-29","status":"确诊"}
{"create":{}}
{"name":"劲松","location":{"type":"point","coordinates":[116.455180302492,39.8831095309199]},"date":"2022-06-29","status":"确诊"}
{"create":{}}
{"name":"双井","location":{"type":"point","coordinates":[116.455485873022,39.8922310119051]},"date":"2022-06-29","status":"确诊"}
{"create":{}}
{"name":"金台夕照","location":{"type":"point","coordinates":[116.455698197314,39.9153860964781]},"date":"2022-06-29","status":"确诊"}
{"create":{}}
{"name":"团结湖","location":{"type":"point","coordinates":[116.455722955529,39.9324004653327]},"date":"2022-06-29","status":"确诊"}
{"create":{}}
{"name":"农业展览馆","location":{"type":"point","coordinates":[116.455980244001,39.940380237068]},"date":"2022-06-29","status":"确诊"}
{"create":{}}
{"name":"亮马桥","location":{"type":"point","coordinates":[116.455758684496,39.9477534243218]},"date":"2022-06-29","status":"确诊"}
{"create":{}}
{"name":"三元桥","location":{"type":"point","coordinates":[116.450672423828,39.960023856843]},"date":"2022-06-29","status":"确诊"}
{"create":{}}
{"name":"太阳宫","location":{"type":"point","coordinates":[116.441311425537,39.9714333884303]},"date":"2022-06-29","status":"确诊"}
{"create":{}}
{"name":"芍药居","location":{"type":"point","coordinates":[116.429934221601,39.9764289966165]},"date":"2022-06-29","status":"确诊"}
{"create":{}}
{"name":"安贞门","location":{"type":"point","coordinates":[116.399720252152,39.9755737723633]},"date":"2022-06-29","status":"确诊"}
{"create":{}}
{"name":"北土城","location":{"type":"point","coordinates":[116.388192704581,39.9752830897879]},"date":"2022-06-29","status":"确诊"}
{"create":{}}
{"name":"建德门","location":{"type":"point","coordinates":[116.375107228486,39.9753116726109]},"date":"2022-06-29","status":"确诊"}
{"create":{}}
{"name":"牡丹园","location":{"type":"point","coordinates":[116.363674048018,39.9749333629346]},"date":"2022-06-29","status":"确诊"}
{"create":{}}
{"name":"西土城","location":{"type":"point","coordinates":[116.347673498608,39.9748254046705]},"date":"2022-06-29","status":"确诊"}
{"create":{}}
{"name":"知春路","location":{"type":"point","coordinates":[116.333777203084,39.9751337553324]},"date":"2022-06-29","status":"确诊"}
{"create":{}}
{"name":"知春里","location":{"type":"point","coordinates":[116.32247877505,39.9749990730542]},"date":"2022-06-29","status":"确诊"}
{"create":{}}
{"name":"海淀黄庄","location":{"type":"point","coordinates":[116.311463921727,39.9747118146049]},"date":"2022-06-29","status":"确诊"}
{"create":{}}
{"name":"苏州街","location":{"type":"point","coordinates":[116.300171902515,39.9743603300892]},"date":"2022-06-29","status":"确诊"}
{"create":{}}
{"name":"巴沟","location":{"type":"point","coordinates":[116.287988138761,39.9729187430828]},"date":"2022-06-29","status":"确诊"}
{"create":{}}
{"name":"火器营","location":{"type":"point","coordinates":[116.282949314744,39.9647696707514]},"date":"2022-06-29","status":"确诊"}
{"create":{}}
{"name":"长春桥","location":{"type":"point","coordinates":[116.288316798983,39.9570570494171]},"date":"2022-06-29","status":"确诊"}
{"create":{}}
{"name":"车道沟","location":{"type":"point","coordinates":[116.287809311533,39.9468805230211]},"date":"2022-06-29","status":"确诊"}
{"create":{}}
{"name":"西钓鱼台","location":{"type":"point","coordinates":[116.291593106589,39.9220399384663]},"date":"2022-06-29","status":"确诊"}
{"create":{}}
{"name":"莲花桥","location":{"type":"point","coordinates":[116.304306399013,39.8964009470558]},"date":"2022-06-29","status":"确诊"}
{"create":{}}
{"name":"六里桥","location":{"type":"point","coordinates":[116.29668513819,39.879070005002]},"date":"2022-06-29","status":"确诊"}
{"create":{}}
{"name":"新宫","location":{"type":"point","coordinates":[116.359399388231,39.8108816933961]},"date":"2022-06-29","status":"确诊"}
{"create":{}}
{"name":"西红门","location":{"type":"point","coordinates":[116.322636049853,39.7882882886937]},"date":"2022-06-29","status":"确诊"}
{"create":{}}
{"name":"高米店北","location":{"type":"point","coordinates":[116.324725408183,39.7720760665072]},"date":"2022-06-29","status":"确诊"}
{"create":{}}
{"name":"高米店南","location":{"type":"point","coordinates":[116.325657926568,39.7621133990208]},"date":"2022-06-29","status":"确诊"}
{"create":{}}
{"name":"枣园","location":{"type":"point","coordinates":[116.32585183397,39.7522827292702]},"date":"2022-06-29","status":"确诊"}
{"create":{}}
{"name":"清源路","location":{"type":"point","coordinates":[116.326388415111,39.7413612408358]},"date":"2022-06-29","status":"确诊"}
{"create":{}}
{"name":"黄村西大街","location":{"type":"point","coordinates":[116.326496869404,39.7300759234672]},"date":"2022-06-29","status":"确诊"}
{"create":{}}
{"name":"黄村火车站","location":{"type":"point","coordinates":[116.326455106166,39.7216440206554]},"date":"2022-06-29","status":"确诊"}
{"create":{}}
{"name":"义和庄","location":{"type":"point","coordinates":[116.312926003432,39.711223482066]},"date":"2022-06-29","status":"确诊"}
{"create":{}}
{"name":"生物医药基地","location":{"type":"point","coordinates":[116.31616205006,39.6853340203344]},"date":"2022-06-29","status":"确诊"}
{"create":{}}
{"name":"天宫院","location":{"type":"point","coordinates":[116.31384117272,39.6689420317809]},"date":"2022-06-29","status":"确诊"}
{"create":{}}
{"name":"西二旗","location":{"type":"point","coordinates":[116.306710899937,40.051915972882]},"date":"2022-06-29","status":"确诊"}
{"create":{}}
{"name":"朱辛庄","location":{"type":"point","coordinates":[116.307494727524,40.1030441129221]},"date":"2022-06-29","status":"确诊"}
{"create":{}}
{"name":"立水桥","location":{"type":"point","coordinates":[116.406153182353,40.0516327973524]},"date":"2022-06-29","status":"确诊"}
{"create":{}}
{"name":"霍营","location":{"type":"point","coordinates":[116.353919241143,40.0706357628654]},"date":"2022-06-29","status":"确诊"}
{"create":{}}
{"name":"回龙观","location":{"type":"point","coordinates":[116.330093583104,40.0694514674507]},"date":"2022-06-29","status":"确诊"}
{"create":{}}
{"name":"龙泽","location":{"type":"point","coordinates":[116.313456740162,40.069501325828]},"date":"2022-06-29","status":"确诊"}
{"create":{}}
{"name":"西二旗","location":{"type":"point","coordinates":[116.30005193442,40.0515766920253]},"date":"2022-06-29","status":"确诊"}
{"create":{}}
{"name":"上地","location":{"type":"point","coordinates":[116.314073137625,40.0316792842494]},"date":"2022-06-29","status":"确诊"}
{"create":{}}
{"name":"育知路","location":{"type":"point","coordinates":[116.321196891712,40.0864943777795]},"date":"2022-06-29","status":"确诊"}
{"create":{}}
{"name":"平西府","location":{"type":"point","coordinates":[116.344398631487,40.088828056839]},"date":"2022-06-29","status":"确诊"}
{"create":{}}
{"name":"回龙观东大街","location":{"type":"point","coordinates":[116.357022528,40.0797385553666]},"date":"2022-06-29","status":"确诊"}
{"create":{}}
{"name":"四惠东","location":{"type":"point","coordinates":[116.509417958539,39.9073081401866]},"date":"2022-06-29","status":"确诊"}
{"create":{}}
{"name":"四惠","location":{"type":"point","coordinates":[116.489438988777,39.9075540237636]},"date":"2022-06-29","status":"确诊"}
{"create":{}}
{"name":"大望路","location":{"type":"point","coordinates":[116.469697167357,39.9073131958861]},"date":"2022-06-29","status":"确诊"}
{"create":{}}
{"name":"国贸","location":{"type":"point","coordinates":[116.453951203416,39.9071736912891]},"date":"2022-06-29","status":"确诊"}
{"create":{}}
{"name":"永安里","location":{"type":"point","coordinates":[116.444283652749,39.9071992048531]},"date":"2022-06-29","status":"确诊"}
{"create":{}}
{"name":"建国门","location":{"type":"point","coordinates":[116.429031213608,39.9072265994802]},"date":"2022-06-29","status":"确诊"}
{"create":{}}
{"name":"东单","location":{"type":"point","coordinates":[116.411840198495,39.9068843239427]},"date":"2022-06-29","status":"确诊"}
{"create":{}}
{"name":"王府井","location":{"type":"point","coordinates":[116.405179114147,39.9067077087023]},"date":"2022-06-29","status":"确诊"}
{"create":{}}
{"name":"天安门东","location":{"type":"point","coordinates":[116.395321194324,39.9063870041785]},"date":"2022-06-29","status":"确诊"}
{"create":{}}
{"name":"天安门西","location":{"type":"point","coordinates":[116.38542463292,39.9060785521466]},"date":"2022-06-29","status":"确诊"}
{"create":{}}
{"name":"西单","location":{"type":"point","coordinates":[116.370706712527,39.9059341337714]},"date":"2022-06-29","status":"确诊"}
{"create":{}}
{"name":"复兴门","location":{"type":"point","coordinates":[116.350965895502,39.9058730723916]},"date":"2022-06-29","status":"确诊"}
{"create":{}}
{"name":"南礼士路","location":{"type":"point","coordinates":[116.346438737364,39.9058973270054]},"date":"2022-06-29","status":"确诊"}
{"create":{}}
{"name":"木樨地","location":{"type":"point","coordinates":[116.331319511091,39.9061415848303]},"date":"2022-06-29","status":"确诊"}
{"create":{}}
{"name":"军事博物馆","location":{"type":"point","coordinates":[116.315744164391,39.9063924032051]},"date":"2022-06-29","status":"确诊"}
{"create":{}}
{"name":"公主坟","location":{"type":"point","coordinates":[116.304002039511,39.906219276105]},"date":"2022-06-29","status":"确诊"}
{"create":{}}
{"name":"万寿路","location":{"type":"point","coordinates":[116.289068890564,39.9062222059517]},"date":"2022-06-29","status":"确诊"}
{"create":{}}
{"name":"五棵松","location":{"type":"point","coordinates":[116.268010914863,39.906267026756]},"date":"2022-06-29","status":"确诊"}
{"create":{}}
{"name":"玉泉路","location":{"type":"point","coordinates":[116.24700719394,39.9062500892561]},"date":"2022-06-29","status":"确诊"}
{"create":{}}
{"name":"八宝山","location":{"type":"point","coordinates":[116.229679495328,39.9062178163507]},"date":"2022-06-29","status":"确诊"}
{"create":{}}
{"name":"八角游乐园","location":{"type":"point","coordinates":[116.206612603471,39.9061609698099]},"date":"2022-06-29","status":"确诊"}
{"create":{}}
{"name":"古城","location":{"type":"point","coordinates":[116.184472687805,39.9061622176212]},"date":"2022-06-29","status":"确诊"}
{"create":{}}
{"name":"苹果园","location":{"type":"point","coordinates":[116.171491509081,39.9248559956348]},"date":"2022-06-29","status":"确诊"}
{"create":{}}
{"name":"鼓楼大家","location":{"type":"point","coordinates":[116.387351460605,39.9475720299911]},"date":"2022-06-29","status":"确诊"}
{"create":{}}
{"name":"安定门","location":{"type":"point","coordinates":[116.402017330795,39.9477790040433]},"date":"2022-06-29","status":"确诊"}
{"create":{}}
{"name":"雍和宫","location":{"type":"point","coordinates":[116.410345718891,39.9470216944912]},"date":"2022-06-29","status":"确诊"}
{"create":{}}
{"name":"东直门","location":{"type":"point","coordinates":[116.427544881828,39.9400173109285]},"date":"2022-06-29","status":"确诊"}
{"create":{}}
{"name":"东四十条","location":{"type":"point","coordinates":[116.427999700066,39.9322782524206]},"date":"2022-06-29","status":"确诊"}
{"create":{}}
{"name":"朝阳门","location":{"type":"point","coordinates":[116.427593102801,39.9232250535194]},"date":"2022-06-29","status":"确诊"}
{"create":{}}
{"name":"建国门","location":{"type":"point","coordinates":[116.429031213608,39.9072265994802]},"date":"2022-06-29","status":"确诊"}
{"create":{}}
{"name":"北京站","location":{"type":"point","coordinates":[116.420914591811,39.903683592711]},"date":"2022-06-29","status":"确诊"}
{"create":{}}
{"name":"崇文门","location":{"type":"point","coordinates":[116.412344698106,39.8989450292377]},"date":"2022-06-29","status":"确诊"}
{"create":{}}
{"name":"前门","location":{"type":"point","coordinates":[116.391714435525,39.8987287826947]},"date":"2022-06-29","status":"确诊"}
{"create":{}}
{"name":"和平门","location":{"type":"point","coordinates":[116.377959750487,39.8986844642526]},"date":"2022-06-29","status":"确诊"}
{"create":{}}
{"name":"宣武门","location":{"type":"point","coordinates":[116.368110962959,39.8983382471916]},"date":"2022-06-29","status":"确诊"}
{"create":{}}
{"name":"长椿街","location":{"type":"point","coordinates":[116.357176447769,39.8980777966377]},"date":"2022-06-29","status":"确诊"}
{"create":{}}
{"name":"复兴门","location":{"type":"point","coordinates":[116.350965895502,39.9058730723916]},"date":"2022-06-29","status":"确诊"}
{"create":{}}
{"name":"阜成门","location":{"type":"point","coordinates":[116.350034895399,39.9223749646233]},"date":"2022-06-29","status":"确诊"}
{"create":{}}
{"name":"车公庄","location":{"type":"point","coordinates":[116.349689023098,39.9313888751877]},"date":"2022-06-29","status":"确诊"}
{"create":{}}
{"name":"西直门","location":{"type":"point","coordinates":[116.349215689731,39.9389408912931]},"date":"2022-06-29","status":"确诊"}
{"create":{}}
{"name":"安和桥北","location":{"type":"point","coordinates":[116.264013056087,40.0110880493874]},"date":"2022-06-29","status":"确诊"}
{"create":{}}
{"name":"北宫门","location":{"type":"point","coordinates":[116.27153065701,40.0010817795028]},"date":"2022-06-29","status":"确诊"}
{"create":{}}
{"name":"西苑","location":{"type":"point","coordinates":[116.284640813048,39.9971389713471]},"date":"2022-06-29","status":"确诊"}
{"create":{}}
{"name":"圆明园","location":{"type":"point","coordinates":[116.303400738845,39.9982155968404]},"date":"2022-06-29","status":"确诊"}
{"create":{}}
{"name":"北京大学东门","location":{"type":"point","coordinates":[116.309617260545,39.9908225376691]},"date":"2022-06-29","status":"确诊"}
{"create":{}}
{"name":"中关村","location":{"type":"point","coordinates":[116.310378590389,39.9827854489035]},"date":"2022-06-29","status":"确诊"}
{"create":{}}
{"name":"海淀黄庄","location":{"type":"point","coordinates":[116.311679712696,39.9747193346887]},"date":"2022-06-29","status":"确诊"}
{"create":{}}
{"name":"人民大学","location":{"type":"point","coordinates":[116.315356571441,39.9656747276163]},"date":"2022-06-29","status":"确诊"}
{"create":{}}
{"name":"魏公村","location":{"type":"point","coordinates":[116.317101764198,39.9564397592553]},"date":"2022-06-29","status":"确诊"}
{"create":{}}
{"name":"国家图书馆","location":{"type":"point","coordinates":[116.319198811873,39.9418113174884]},"date":"2022-06-29","status":"确诊"}
{"create":{}}
{"name":"动物园","location":{"type":"point","coordinates":[116.33244406405,39.9369571802978]},"date":"2022-06-29","status":"确诊"}
{"create":{}}
{"name":"西直门","location":{"type":"point","coordinates":[116.349215689731,39.9389408912931]},"date":"2022-06-29","status":"确诊"}
{"create":{}}
{"name":"新街口","location":{"type":"point","coordinates":[116.361450133093,39.9392201539039]},"date":"2022-06-29","status":"确诊"}
{"create":{}}
{"name":"平安里","location":{"type":"point","coordinates":[116.365251400636,39.9313326629154]},"date":"2022-06-29","status":"确诊"}
{"create":{}}
{"name":"西四","location":{"type":"point","coordinates":[116.367227757321,39.9225726999906]},"date":"2022-06-29","status":"确诊"}
{"create":{}}
{"name":"灵境胡同","location":{"type":"point","coordinates":[116.367526356958,39.9147036894713]},"date":"2022-06-29","status":"确诊"}
{"create":{}}
{"name":"西单","location":{"type":"point","coordinates":[116.367683576065,39.9058343932791]},"date":"2022-06-29","status":"确诊"}
{"create":{}}
{"name":"宣武门","location":{"type":"point","coordinates":[116.368110962959,39.8983382471916]},"date":"2022-06-29","status":"确诊"}
{"create":{}}
{"name":"菜市口","location":{"type":"point","coordinates":[116.368293747386,39.8879310248611]},"date":"2022-06-29","status":"确诊"}
{"create":{}}
{"name":"陶然亭","location":{"type":"point","coordinates":[116.368194247963,39.8771656588459]},"date":"2022-06-29","status":"确诊"}
{"create":{}}
{"name":"北京南站","location":{"type":"point","coordinates":[116.372782804259,39.8634626037351]},"date":"2022-06-29","status":"确诊"}
{"create":{}}
{"name":"马家堡","location":{"type":"point","coordinates":[116.365173628979,39.8518305259346]},"date":"2022-06-29","status":"确诊"}
{"create":{}}
{"name":"角门西","location":{"type":"point","coordinates":[116.364864003813,39.844525334218]},"date":"2022-06-29","status":"确诊"}
{"create":{}}
{"name":"公益西桥","location":{"type":"point","coordinates":[116.364617478484,39.8357341826833]},"date":"2022-06-29","status":"确诊"}
{"create":{}}
{"name":"新宫","location":{"type":"point","coordinates":[116.35935280793,39.8110787661181]},"date":"2022-06-29","status":"确诊"}
{"create":{}}
{"name":"西红门","location":{"type":"point","coordinates":[116.322438470536,39.7884791650213]},"date":"2022-06-29","status":"确诊"}
{"create":{}}
{"name":"高米店北","location":{"type":"point","coordinates":[116.324584727886,39.772642107665]},"date":"2022-06-29","status":"确诊"}
{"create":{}}
{"name":"高米店南","location":{"type":"point","coordinates":[116.325640631677,39.7620621237305]},"date":"2022-06-29","status":"确诊"}
{"create":{}}
{"name":"枣园","location":{"type":"point","coordinates":[116.326208481544,39.7520800826173]},"date":"2022-06-29","status":"确诊"}
{"create":{}}
{"name":"清源路","location":{"type":"point","coordinates":[116.326226882271,39.7413702432317]},"date":"2022-06-29","status":"确诊"}
{"create":{}}
{"name":"黄村西大街","location":{"type":"point","coordinates":[116.326234536367,39.7304261701499]},"date":"2022-06-29","status":"确诊"}
{"create":{}}
{"name":"黄村火车站","location":{"type":"point","coordinates":[116.326695316357,39.7213627882176]},"date":"2022-06-29","status":"确诊"}
{"create":{}}
{"name":"义和庄","location":{"type":"point","coordinates":[116.312861316118,39.7112712228962]},"date":"2022-06-29","status":"确诊"}
{"create":{}}
{"name":"生物医药基地","location":{"type":"point","coordinates":[116.315639111315,39.6852401663187]},"date":"2022-06-29","status":"确诊"}
{"create":{}}
{"name":"天宫院","location":{"type":"point","coordinates":[116.313794290424,39.6690253222046]},"date":"2022-06-29","status":"确诊"}


POST hospital/_bulk?filter_path=items.*.error
{"create":{}}
{"name":"首都医科大学附属复兴医院","location":{"type":"point","coordinates":[116.346799,39.911216]},"address":"北京市西城区复兴门外大街甲20号","lv":"三级","district":"西城区"}
{"create":{}}
{"name":"北京市宣武中医医院","location":{"type":"point","coordinates":[116.395502,39.894077]},"address":"北京市西城区万明路13号","lv":"三级","district":"西城区"}
{"create":{}}
{"name":"北京急救中心","location":{"type":"point","coordinates":[116.388257,39.906918]},"address":"北京市西城区前门西大街103号","lv":"三级","district":"西城区"}
{"create":{}}
{"name":"首都医科大学附属北京友谊医院","location":{"type":"point","coordinates":[116.398533,39.891679]},"address":"北京市西城区永安路95号","lv":"三甲","district":"西城区"}
{"create":{}}
{"name":"北京市肛肠医院(北院区)","location":{"type":"point","coordinates":[116.386825,39.965847]},"address":"北京市西城区德外大街16号","lv":"三甲","district":"西城区"}
{"create":{}}
{"name":"中国医学科学院阜外医院","location":{"type":"point","coordinates":[116.357885,39.931211]},"address":"北京市西城区北礼士路167号","lv":"三甲","district":"西城区"}
{"create":{}}
{"name":"首都医科大学附属北京安定医院","location":{"type":"point","coordinates":[116.38321,39.958778]},"address":"北京市西城区德胜门外安康胡同5号","lv":"三甲","district":"西城区"}
{"create":{}}
{"name":"北京大学人民医院","location":{"type":"point","coordinates":[116.360841,39.94263]},"address":"北京市西城区西直门南大街11号","lv":"三甲","district":"西城区"}
{"create":{}}
{"name":"北京大学第一医院","location":{"type":"point","coordinates":[116.387052,39.938046]},"address":"北京市西城区西什库大街8号","lv":"三甲","district":"西城区"}
{"create":{}}
{"name":"首都医科大学宣武医院","location":{"type":"point","coordinates":[116.368858,39.897968]},"address":"北京市西城区长椿街45号","lv":"三甲","district":"西城区"}
{"create":{}}
{"name":"北京协和医院(西院)","location":{"type":"point","coordinates":[116.374086,39.918891]},"address":"北京市西城区二龙路大木仓胡同41号","lv":"三甲","district":"西城区"}
{"create":{}}
{"name":"首都医科大学附属北京儿童医院","location":{"type":"point","coordinates":[116.361192,39.918336]},"address":"北京市西城区南礼士路56号","lv":"三甲","district":"西城区"}
{"create":{}}
{"name":"北京积水潭医院(新街口院区)","location":{"type":"point","coordinates":[116.382269,39.949575]},"address":"北京市西城区新街口东街31号","lv":"三甲","district":"西城区"}
{"create":{}}
{"name":"中国中医科学院广安门医院","location":{"type":"point","coordinates":[116.358291,39.896529]},"address":"北京市西城区北线阁5号","lv":"三甲","district":"西城区"}
{"create":{}}
{"name":"北京市回民医院","location":{"type":"point","coordinates":[116.369266,39.887938]},"address":"北京市西城区右安门内大街11号","lv":"三甲","district":"西城区"}
{"create":{}}
{"name":"北京大学第一医院(妇产儿童医院)","location":{"type":"point","coordinates":[116.388449,39.929512]},"address":"北京市西城区西安门大街1号院","lv":"三甲","district":"西城区"}
{"create":{}}
{"name":"中国人民解放军第305医院","location":{"type":"point","coordinates":[116.391015,39.931924]},"address":"北京市西城区文津街甲13号","lv":"三甲","district":"西城区"}
{"create":{}}
{"name":"北京中医药大学附属护国寺中医医院","location":{"type":"point","coordinates":[116.382553,39.942456]},"address":"北京市西城区棉花胡同83号","lv":"三甲","district":"西城区"}
{"create":{}}
{"name":"北京大学人民医院(白塔寺院区)","location":{"type":"point","coordinates":[116.372627,39.930699]},"address":"北京市西城区阜成门内大街133号","lv":"三甲","district":"西城区"}
{"create":{}}
{"name":"中国人民解放军火箭军特色医学中心","location":{"type":"point","coordinates":[116.378824,39.962809]},"address":"北京市西城区新街口外大街16号北京师范大学对面","lv":"三甲","district":"西城区"}
{"create":{}}
{"name":"武警北京总队第二医院","location":{"type":"point","coordinates":[116.358931,39.923915]},"address":"北京市西城区月坛北街丁3号","lv":"三甲","district":"西城区"}
{"create":{}}
{"name":"北京市肛肠医院南院区","location":{"type":"point","coordinates":[116.37268,39.916527]},"address":"北京市西城区下岗胡同1号","lv":"三甲","district":"西城区"}
{"create":{}}
{"name":"北京中医药大学附属护国寺中医医院(第一分部)","location":{"type":"point","coordinates":[116.381611,39.937537]},"address":"北京市西城区太平仓胡同14号","lv":"三甲","district":"西城区"}
{"create":{}}
{"name":"北京医院","location":{"type":"point","coordinates":[116.421607,39.910083]},"address":"北京市东城区东单大华路1号","lv":"三甲","district":"东城区"}
{"create":{}}
{"name":"首都医科大学附属北京同仁医院","location":{"type":"point","coordinates":[116.423575,39.908921]},"address":"北京市东城区东交民巷1号","lv":"三甲","district":"东城区"}
{"create":{}}
{"name":"北京中医药大学东直门医院","location":{"type":"point","coordinates":[116.433851,39.943285]},"address":"北京市东城区海运仓胡同5号","lv":"三甲","district":"东城区"}
{"create":{}}
{"name":"首都医科大学附属北京中医医院","location":{"type":"point","coordinates":[116.414341,39.938258]},"address":"北京市东城区美术馆后街23号","lv":"三甲","district":"东城区"}
{"create":{}}
{"name":"北京协和医院(东单院区)","location":{"type":"point","coordinates":[116.422134,39.918963]},"address":"北京市东城区东单北大街53号","lv":"三甲","district":"东城区"}
{"create":{}}
{"name":"首都医科大学附属北京妇产医院(西院区)","location":{"type":"point","coordinates":[116.410663,39.926896]},"address":"北京市东城区骑河楼大街17号","lv":"三甲","district":"东城区"}
{"create":{}}
{"name":"首都医科大学附属北京口腔医院(天坛部)","location":{"type":"point","coordinates":[116.408789,39.884411]},"address":"北京市东城区天坛西里4号","lv":"三甲","district":"东城区"}
{"create":{}}
{"name":"北京市和平里医院","location":{"type":"point","coordinates":[116.419987,39.964466]},"address":"北京市东城区和平里北街18号","lv":"三甲","district":"东城区"}
{"create":{}}
{"name":"首都医科大学附属北京口腔医院(王府井部)","location":{"type":"point","coordinates":[116.415978,39.923058]},"address":"北京市东城区王府井步行街锡拉胡同11号","lv":"三甲","district":"东城区"}
{"create":{}}
{"name":"中国人民解放军总医院第七医学中心","location":{"type":"point","coordinates":[116.435594,39.936881]},"address":"北京市东城区东四十条南门仓胡同5号","lv":"三甲","district":"东城区"}
{"create":{}}
{"name":"北京中医药大学东直门医院(国际部)","location":{"type":"point","coordinates":[116.423315,39.937049]},"address":"北京市东城区东四北大街279号","lv":"三甲","district":"东城区"}
{"create":{}}
{"name":"首都医科大学附属北京同仁医院(东区)","location":{"type":"point","coordinates":[116.425703,39.909334]},"address":"北京市东城区东华门街道崇内大街后沟胡同16号","lv":"三甲","district":"东城区"}
{"create":{}}
{"name":"首都医科大学附属北京安贞医院","location":{"type":"point","coordinates":[116.409978,39.979213]},"address":"北京市朝阳区安贞路2号","lv":"三甲","district":"朝阳区"}
{"create":{}}
{"name":"首都医科大学附属北京朝阳医院","location":{"type":"point","coordinates":[116.460197,39.931144]},"address":"北京市朝阳区工人体育场南路8号","lv":"三甲","district":"朝阳区"}
{"create":{}}
{"name":"中日友好医院","location":{"type":"point","coordinates":[116.43262,39.980346]},"address":"北京市朝阳区樱花园东街2号","lv":"三甲","district":"朝阳区"}
{"create":{}}
{"name":"北京市第一中西医结合医院(东坝院区)","location":{"type":"point","coordinates":[116.559861,39.978723]},"address":"北京市朝阳区东坝乡东风大队二条","lv":"三甲","district":"朝阳区"}
{"create":{}}
{"name":"首都儿科研究所附属儿童医院","location":{"type":"point","coordinates":[116.44615,39.920896]},"address":"北京市朝阳区雅宝路2号","lv":"三甲","district":"朝阳区"}
{"create":{}}
{"name":"中国人民解放军总医院第七医学中心(东区)","location":{"type":"point","coordinates":[116.476645,39.946958]},"address":"北京市朝阳区农展北路8号","lv":"三甲","district":"朝阳区"}
{"create":{}}
{"name":"首都医科大学附属北京妇产医院(东院区)","location":{"type":"point","coordinates":[116.477361,39.937037]},"address":"北京市朝阳区姚家园路251号","lv":"三甲","district":"朝阳区"}
{"create":{}}
{"name":"武警北京总队医院","location":{"type":"point","coordinates":[116.464909,39.941188]},"address":"北京市朝阳区东三里屯1号","lv":"三甲","district":"朝阳区"}
{"create":{}}
{"name":"中日友好医院-北区","location":{"type":"point","coordinates":[116.434952,39.990186]},"address":"北京市朝阳区文学馆路47号","lv":"三甲","district":"朝阳区"}
{"create":{}}
{"name":"中日友好医院(西区舰船院区)","location":{"type":"point","coordinates":[116.374528,40.015989]},"address":"北京市朝阳区科荟路双泉堡甲2号","lv":"三甲","district":"朝阳区"}
{"create":{}}
{"name":"中国中医科学院望京医院","location":{"type":"point","coordinates":[116.478654,39.988512]},"address":"北京市朝阳区望京中环南路6号","lv":"三甲","district":"朝阳区"}
{"create":{}}
{"name":"战略支援部队特色医学中心","location":{"type":"point","coordinates":[116.384973,40.001448]},"address":"北京市朝阳区德胜门外安翔北里9号","lv":"三甲","district":"朝阳区"}
{"create":{}}
{"name":"中国医学科学院整形外科医院东院","location":{"type":"point","coordinates":[116.477563,39.921628]},"address":"北京市朝阳区朝阳门外大街小庄路6号2号楼(中国第一商城内)","lv":"三甲","district":"朝阳区"}
{"create":{}}
{"name":"中国医学科学院肿瘤医院","location":{"type":"point","coordinates":[116.45351,39.878528]},"address":"北京市朝阳区华威南路潘家园南里17号","lv":"三甲","district":"朝阳区"}
{"create":{}}
{"name":"北京中医药大学第三附属医院","location":{"type":"point","coordinates":[116.415561,39.984592]},"address":"北京市朝阳区安定门外小关街51号","lv":"三甲","district":"朝阳区"}
{"create":{}}
{"name":"首都医科大学附属北京地坛医院","location":{"type":"point","coordinates":[116.532687,40.029626]},"address":"北京市朝阳区京顺东街8号","lv":"三级","district":"朝阳区"}
{"create":{}}
{"name":"航空总医院","location":{"type":"point","coordinates":[116.426432,40.035117]},"address":"北京市朝阳区北苑路安外北苑3号院","lv":"三级","district":"朝阳区"}
{"create":{}}
{"name":"北京市垂杨柳医院","location":{"type":"point","coordinates":[116.465871,39.893239]},"address":"北京市朝阳区垂杨柳南街2号","lv":"三级","district":"朝阳区"}
{"create":{}}
{"name":"民航总医院","location":{"type":"point","coordinates":[116.53601,39.921944]},"address":"北京市朝阳区朝阳路高井甲1号","lv":"三级","district":"朝阳区"}
{"create":{}}
{"name":"北京市垂杨柳医院(东院区)","location":{"type":"point","coordinates":[116.473094,39.891353]},"address":"北京市朝阳区东三环南路54号","lv":"三级","district":"朝阳区"}
{"create":{}}
{"name":"北京市红十字会急诊抢救中心","location":{"type":"point","coordinates":[116.359846,40.031806]},"address":"北京市朝阳区德外清河东路一号","lv":"三级","district":"朝阳区"}
{"create":{}}
{"name":"北京市垂杨柳医院管庄院区","location":{"type":"point","coordinates":[116.578272,39.923527]},"address":"北京市朝阳区三间房西村甲479号","lv":"三级","district":"朝阳区"}
{"create":{}}
{"name":"北京京城皮肤医院","location":{"type":"point","coordinates":[116.37213,40.014478]},"address":"北京市朝阳区德胜门外北沙滩科荟路双泉堡甲4号","lv":"三级","district":"朝阳区"}
{"create":{}}
{"name":"应急总医院","location":{"type":"point","coordinates":[116.443208,39.966027]},"address":"北京市朝阳区西坝河南里29号","lv":"三级","district":"朝阳区"}
{"create":{}}
{"name":"北京华信医院","location":{"type":"point","coordinates":[116.501489,39.971657]},"address":"北京市朝阳区酒仙桥一街坊6号","lv":"三级","district":"朝阳区"}
{"create":{}}
{"name":"北京市第一中西医结合医院(CBD院区)","location":{"type":"point","coordinates":[116.47878,39.922578]},"address":"北京市朝阳区金台路13号内2号","lv":"三级","district":"朝阳区"}
{"create":{}}
{"name":"首都医科大学附属北京世纪坛医院","location":{"type":"point","coordinates":[116.325548,39.905379]},"address":"北京市海淀区羊坊店铁医路10号","lv":"三级","district":"海淀区"}
{"create":{}}
{"name":"北京市海淀医院","location":{"type":"point","coordinates":[116.321675,39.982867]},"address":"北京市海淀区中关村大街29号","lv":"三级","district":"海淀区"}
{"create":{}}
{"name":"北京老年医院","location":{"type":"point","coordinates":[116.170391,40.055033]},"address":"北京市海淀区温泉路118号","lv":"三级","district":"海淀区"}
{"create":{}}
{"name":"北京裕和中西医结合康复医院","location":{"type":"point","coordinates":[116.270397,39.92812]},"address":"北京市海淀区永定路15号","lv":"三级","district":"海淀区"}
{"create":{}}
{"name":"解放军二六一医院","location":{"type":"point","coordinates":[116.228147,40.122488]},"address":"北京市海淀区上庄镇皂甲屯村116号","lv":"三级","district":"海淀区"}
{"create":{}}
{"name":"航天中心医院","location":{"type":"point","coordinates":[116.25829,39.922649]},"address":"北京市海淀区玉泉路15号","lv":"三级","district":"海淀区"}
{"create":{}}
{"name":"解放军总医院第三医学中心","location":{"type":"point","coordinates":[116.270068,39.917421]},"address":"北京市海淀区永定路69号","lv":"三甲","district":"海淀区"}
{"create":{}}
{"name":"北京市中西医结合医院","location":{"type":"point","coordinates":[116.272331,39.912532]},"address":"北京市海淀区永定路东街3号","lv":"三甲","district":"海淀区"}
{"create":{}}
{"name":"北京大学第三医院","location":{"type":"point","coordinates":[116.366995,39.988389]},"address":"北京市海淀区花园北路49号","lv":"三甲","district":"海淀区"}
{"create":{}}
{"name":"中国人民解放军总医院","location":{"type":"point","coordinates":[116.283506,39.911144]},"address":"北京市海淀区复兴路28号","lv":"三甲","district":"海淀区"}
{"create":{}}
{"name":"中国中医科学院西苑医院","location":{"type":"point","coordinates":[116.300057,40.001386]},"address":"北京市海淀区中直路西苑操场1号","lv":"三甲","district":"海淀区"}
{"create":{}}
{"name":"解放军总医院第六医学中心","location":{"type":"point","coordinates":[116.33055,39.927549]},"address":"北京市海淀区阜成路6号","lv":"三甲","district":"海淀区"}
{"create":{}}
{"name":"中国人民解放军总医院第四医学中心","location":{"type":"point","coordinates":[116.310801,39.930925]},"address":"北京市海淀区阜成路51号","lv":"三甲","district":"海淀区"}
{"create":{}}
{"name":"北京大学口腔医院","location":{"type":"point","coordinates":[116.331529,39.958019]},"address":"北京市海淀区中关村南大街22号","lv":"三甲","district":"海淀区"}
{"create":{}}
{"name":"解放军总医院第八医学中心","location":{"type":"point","coordinates":[116.27023,40.030693]},"address":"北京市海淀区黑山扈路甲17号","lv":"三甲","district":"海淀区"}
{"create":{}}
{"name":"北京大学肿瘤医院","location":{"type":"point","coordinates":[116.296151,39.929152]},"address":"北京市海淀区阜成路52号","lv":"三甲","district":"海淀区"}
{"create":{}}
{"name":"空军特色医学中心","location":{"type":"point","coordinates":[116.307406,39.927877]},"address":"北京市海淀区阜成路30号","lv":"三甲","district":"海淀区"}
{"create":{}}
{"name":"中国人民解放军空军航空医学研究所附属医院","location":{"type":"point","coordinates":[116.313273,39.947059]},"address":"北京市海淀区昌运宫15号","lv":"三甲","district":"海淀区"}
{"create":{}}
{"name":"北医三院(中央党校院区)","location":{"type":"point","coordinates":[116.286119,40.018162]},"address":"北京市海淀区大有庄100号","lv":"三甲","district":"海淀区"}
{"create":{}}
{"name":"北京马应龙长青肛肠医院","location":{"type":"point","coordinates":[116.264605,39.982332]},"address":"北京市海淀区闵庄路3号玉泉慧谷园区9号楼","lv":"三甲","district":"海淀区"}
{"create":{}}
{"name":"北京马应龙长青肛肠医院(东区)","location":{"type":"point","coordinates":[116.264761,39.982441]},"address":"北京市海淀区闵庄路9号","lv":"三甲","district":"海淀区"}
{"create":{}}
{"name":"北京航天总医院","location":{"type":"point","coordinates":[116.426209,39.810357]},"address":"北京市丰台区东高地万源北路7号","lv":"三级","district":"丰台区"}
{"create":{}}
{"name":"北京电力医院","location":{"type":"point","coordinates":[116.322414,39.891825]},"address":"北京市丰台区太平桥路太平桥西里甲1号","lv":"三级","district":"丰台区"}
{"create":{}}
{"name":"北京首大眼耳鼻喉医院","location":{"type":"point","coordinates":[116.452121,39.855053]},"address":"北京市丰台区成寿寺路33号","lv":"三级","district":"丰台区"}
{"create":{}}
{"name":"北京嘉禾妇儿医院","location":{"type":"point","coordinates":[116.384345,39.848315]},"address":"北京市丰台区马家堡路69号","lv":"三级","district":"丰台区"}
{"create":{}}
{"name":"北京国丹白癜风医院","location":{"type":"point","coordinates":[116.323792,39.883517]},"address":"北京市丰台区太平桥路17号","lv":"三级","district":"丰台区"}
{"create":{}}
{"name":"北京中诺口腔医院(丰台院区)","location":{"type":"point","coordinates":[116.44375,39.865421]},"address":"北京市丰台区南三环东路辅路方庄芳星园三区18号楼","lv":"三级","district":"丰台区"}
{"create":{}}
{"name":"解放军总医院第五医学中心","location":{"type":"point","coordinates":[116.283843,39.891765]},"address":"北京市丰台区西四环中路100号","lv":"三甲","district":"丰台区"}
{"create":{}}
{"name":"北京市丰台中西医结合医院","location":{"type":"point","coordinates":[116.216726,39.826025]},"address":"北京市丰台区长辛店东山坡三里甲60号","lv":"三甲","district":"丰台区"}
{"create":{}}
{"name":"北京博爱医院","location":{"type":"point","coordinates":[116.385115,39.855678]},"address":"北京市丰台区角门北路10号","lv":"三甲","district":"丰台区"}
{"create":{}}
{"name":"首都医科大学附属北京佑安医院","location":{"type":"point","coordinates":[116.362007,39.872301]},"address":"北京市丰台区玉林西路右安门外西头条8号","lv":"三甲","district":"丰台区"}
{"create":{}}
{"name":"北京中医药大学东方医院","location":{"type":"point","coordinates":[116.438616,39.870137]},"address":"北京市丰台区芳星园一区6号","lv":"三甲","district":"丰台区"}
{"create":{}}
{"name":"北京中医药大学东方医院(西院区)","location":{"type":"point","coordinates":[116.210972,39.835347]},"address":"北京市丰台区长辛店陈庄大街1号","lv":"三甲","district":"丰台区"}
{"create":{}}
{"name":"首都医科大学附属北京天坛医院","location":{"type":"point","coordinates":[116.321027,39.839226]},"address":"北京市丰台区南四环西路119号","lv":"三甲","district":"丰台区"}
{"create":{}}
{"name":"武警北京总队第三医院","location":{"type":"point","coordinates":[116.26036,39.892576]},"address":"北京市丰台区小屯路10号","lv":"三级","district":"丰台区"}
{"create":{}}
{"name":"北京大学首钢医院","location":{"type":"point","coordinates":[116.210475,39.934742]},"address":"北京市石景山区晋元庄路9号","lv":"三级","district":"石景山区"}
{"create":{}}
{"name":"中国中医科学院眼科医院","location":{"type":"point","coordinates":[116.237424,39.910304]},"address":"北京市石景山区鲁谷路33号","lv":"三级","district":"石景山区"}
{"create":{}}
{"name":"中国医学科学院整形外科医院","location":{"type":"point","coordinates":[116.206186,39.948336]},"address":"北京市石景山区八大处路33号","lv":"三级","district":"石景山区"}
{"create":{}}
{"name":"首都医科大学附属北京康复医院","location":{"type":"point","coordinates":[116.202336,39.951234]},"address":"北京市石景山区八大处路八大处西下庄","lv":"三级","district":"石景山区"}
{"create":{}}
{"name":"北京联科中医肾病医院","location":{"type":"point","coordinates":[116.158741,39.943968]},"address":"北京市石景山区石门路模式口西102号","lv":"三级","district":"石景山区"}
{"create":{}}
{"name":"北京朝阳医院京西院区","location":{"type":"point","coordinates":[116.216511,39.905785]},"address":"北京市石景山区京原路5号院","lv":"三甲","district":"石景山区"}
{"create":{}}
{"name":"北京市昌平区医院","location":{"type":"point","coordinates":[116.238929,40.232799]},"address":"北京市昌平区鼓楼北街9号","lv":"三级","district":"昌平区"}
{"create":{}}
{"name":"北京京都儿童医院","location":{"type":"point","coordinates":[116.363983,40.085956]},"address":"北京市昌平区回龙观东大街308号","lv":"三级","district":"昌平区"}
{"create":{}}
{"name":"北京王府中西医结合医院","location":{"type":"point","coordinates":[116.421084,40.111241]},"address":"北京市昌平区立汤路与北清路交叉口","lv":"三级","district":"昌平区"}
{"create":{}}
{"name":"北京北大医疗康复医院","location":{"type":"point","coordinates":[116.277115,40.107069]},"address":"北京市昌平区回龙观中关村生命科学园生命园路8号院7号楼及辅楼三至六层","lv":"三级","district":"昌平区"}
{"create":{}}
{"name":"北京美尔目第二眼科医院","location":{"type":"point","coordinates":[116.231892,40.226387]},"address":"北京市昌平区城北街道政府街西路23号","lv":"三级","district":"昌平区"}
{"create":{}}
{"name":"北京大学国际医院","location":{"type":"point","coordinates":[116.270582,40.106889]},"address":"北京市昌平区中关村生命科学园生命园路1号","lv":"三级","district":"昌平区"}
{"create":{}}
{"name":"北京市昌平区中医医院天通苑分院","location":{"type":"point","coordinates":[116.416713,40.073995]},"address":"北京市昌平区东小口镇太平庄中街天通苑西一区25号楼","lv":"三级","district":"昌平区"}
{"create":{}}
{"name":"北京小汤山医院","location":{"type":"point","coordinates":[116.397325,40.185444]},"address":"北京市昌平区小汤山镇","lv":"三级","district":"昌平区"}
{"create":{}}
{"name":"北京积水潭医院(回龙观院区)","location":{"type":"point","coordinates":[116.32965,40.092791]},"address":"北京市昌平区回龙观镇回南北路68号","lv":"三甲","district":"昌平区"}
{"create":{}}
{"name":"北京市昌平区中西医结合医院","location":{"type":"point","coordinates":[116.372866,40.08197]},"address":"北京市昌平区东小口镇霍营村黄平路219号","lv":"三甲","district":"昌平区"}
{"create":{}}
{"name":"北京市昌平区中西医结合医院（分院）","location":{"type":"point","coordinates":[116.359344,40.109531]},"address":"北京市昌平区沙河镇白各庄新村村南","lv":"三甲","district":"昌平区"}
{"create":{}}
{"name":"北京回龙观医院","location":{"type":"point","coordinates":[116.336438,40.072505]},"address":"北京市昌平区回龙观镇南店北路","lv":"三甲","district":"昌平区"}
{"create":{}}
{"name":"北京市顺义区医院","location":{"type":"point","coordinates":[116.662254,40.134632]},"address":"北京市顺义区光明南街3号","lv":"三级","district":"顺义区"}
{"create":{}}
{"name":"北京方舟皮肤病医院","location":{"type":"point","coordinates":[116.565071,40.105497]},"address":"北京市顺义区裕东路3号院","lv":"三级","district":"顺义区"}
{"create":{}}
{"name":"北京中医医院顺义医院","location":{"type":"point","coordinates":[116.661304,40.133907]},"address":"北京市顺义区站前东街5号 ","lv":"三甲","district":"顺义区"}
{"create":{}}
{"name":"北京中医药大学东直门医院(通州院区)","location":{"type":"point","coordinates":[116.65105,39.890385]},"address":"北京市通州区翠屏西路116号","lv":"三甲","district":"通州区"}
{"create":{}}
{"name":"首都医科大学附属北京胸科医院","location":{"type":"point","coordinates":[116.659215,39.930075]},"address":"北京市通州区北马厂97号","lv":"三甲","district":"通州区"}
{"create":{}}
{"name":"首都医科大学附属北京潞河医院","location":{"type":"point","coordinates":[116.666059,39.907568]},"address":"北京市通州区新华南路82号","lv":"三甲","district":"通州区"}
{"create":{}}
{"name":"北京美尔目眼科医院","location":{"type":"point","coordinates":[116.661607,39.899246]},"address":"北京市通州区通朝大街13号院1号楼","lv":"三级","district":"通州区"}
{"create":{}}
{"name":"首都医科大学附属北京同仁医院(南区)","location":{"type":"point","coordinates":[116.526117,39.781461]},"address":"北京市大兴区西环南路2号","lv":"三甲","district":"大兴区"}
{"create":{}}
{"name":"中国中医科学院广安门医院(南区)","location":{"type":"point","coordinates":[116.346555,39.74997]},"address":"北京市大兴区黄村兴丰大街二段138号","lv":"三甲","district":"大兴区"}
{"create":{}}
{"name":"北京市大兴区人民医院","location":{"type":"point","coordinates":[116.340455,39.736565]},"address":"北京市大兴区黄村西大街26号","lv":"三级","district":"大兴区"}
{"create":{}}
{"name":"北京市大兴区中西医结合医院","location":{"type":"point","coordinates":[116.455154,39.777559]},"address":"北京市大兴区瀛海镇忠兴南路3号","lv":"三级","district":"大兴区"}
{"create":{}}
{"name":"北京爱育华妇儿医院","location":{"type":"point","coordinates":[116.528442,39.779403]},"address":"北京市大兴区经济技术开发区景园南街2号","lv":"三级","district":"大兴区"}
{"create":{}}
{"name":"北京中科白癜风医院","location":{"type":"point","coordinates":[116.475514,39.817104]},"address":"北京市大兴区旧宫镇三台山路南口临18号院","lv":"三级","district":"大兴区"}
{"create":{}}
{"name":"北京中医药大学房山医院(良乡分院)","location":{"type":"point","coordinates":[116.142014,39.735201]},"address":"北京市房山区良乡镇西潞南大街甲8号","lv":"三甲","district":"房山区"}
{"create":{}}
{"name":"北京市房山区中医医院(月华分院)","location":{"type":"point","coordinates":[116.157285,39.753866]},"address":"北京市房山区月华北大街10号","lv":"三甲","district":"房山区"}
{"create":{}}
{"name":"北京市房山区中医医院(东岭分院)","location":{"type":"point","coordinates":[115.978576,39.769551]},"address":"北京市房山区东万路燕山羊耳峪北里6号楼西侧","lv":"三甲","district":"房山区"}
{"create":{}}
{"name":"北京市房山区中医医院(杏花分院)","location":{"type":"point","coordinates":[115.970049,39.727793]},"address":"北京市房山区迎风南路6号","lv":"三甲","district":"房山区"}
{"create":{}}
{"name":"北京市房山区中医医院","location":{"type":"point","coordinates":[115.989383,39.701571]},"address":"北京市房山区城关保健路4号","lv":"三级","district":"房山区"}
{"create":{}}
{"name":"北京市房山区良乡医院","location":{"type":"point","coordinates":[116.146214,39.742655]},"address":"北京市房山区拱辰大街45号","lv":"三级","district":"房山区"}
{"create":{}}
{"name":"北京燕化医院","location":{"type":"point","coordinates":[115.958375,39.733234]},"address":"北京市房山区燕山迎风街15号","lv":"三级","district":"房山区"}
{"create":{}}
{"name":"北京市平谷区中医医院","location":{"type":"point","coordinates":[117.127617,40.162695]},"address":"北京市平谷区平谷镇平翔路6号","lv":"三甲","district":"平谷区"}
{"create":{}}
{"name":"北京市平谷区医院","location":{"type":"point","coordinates":[117.110755,40.152633]},"address":"北京市平谷区新平北路59号","lv":"三级","district":"平谷区"}
{"create":{}}
{"name":"北京京煤集团总医院","location":{"type":"point","coordinates":[116.103409,39.94509]},"address":"北京市门头沟区黑山大街18号","lv":"三级","district":"门头沟区"}
{"create":{}}
{"name":"北京市西城区平安医院","location":{"type":"point","coordinates":[116.374293,39.940627]},"address":"北京市西城区赵登禹路169号","lv":"二甲","district":"西城区"}
{"create":{}}
{"name":"北京市丰盛中医骨伤专科医院","location":{"type":"point","coordinates":[116.368081,39.929306]},"address":"北京市西城区阜城门内大街306号","lv":"二甲","district":"西城区"}
{"create":{}}
{"name":"北京市第二医院","location":{"type":"point","coordinates":[116.383254,39.908463]},"address":"北京市西城区宣武门内大街油坊胡同36号","lv":"二甲","district":"西城区"}
{"create":{}}
{"name":"北京市健宫医院","location":{"type":"point","coordinates":[116.382273,39.887084]},"address":"北京市西城区儒福里6号","lv":"二甲","district":"西城区"}
{"create":{}}
{"name":"北京市西城区平安医院分部","location":{"type":"point","coordinates":[116.347881,39.888191]},"address":"北京市西城区广安门外车站西街5号","lv":"二甲","district":"西城区"}
{"create":{}}
{"name":"北京市西城区广外医院","location":{"type":"point","coordinates":[116.337871,39.894384]},"address":"北京市西城区广外三义里甲2号","lv":"二甲","district":"西城区"}
{"create":{}}
{"name":"北京市西城区证仁医院","location":{"type":"point","coordinates":[116.364305,39.8764]},"address":"北京市西城区右安门西街临4号","lv":"二甲","district":"西城区"}
{"create":{}}
{"name":"北京市西城区康迈骨伤医院","location":{"type":"point","coordinates":[116.370264,39.90157]},"address":"北京市西城区长椿街12号","lv":"二甲","district":"西城区"}
{"create":{}}
{"name":"北京按摩医院","location":{"type":"point","coordinates":[116.377842,39.941121]},"address":"北京市西城区宝产胡同7号","lv":"二级","district":"西城区"}
{"create":{}}
{"name":"北京新世纪儿童医院","location":{"type":"point","coordinates":[116.362392,39.917568]},"address":"北京市西城区南礼士路56号","lv":"二级","district":"西城区"}
{"create":{}}
{"name":"北京市西城区妇幼保健院","location":{"type":"point","coordinates":[116.379737,39.887381]},"address":"北京市西城区菜市口大街辅路平原里小区19号楼","lv":"二级","district":"西城区"}
{"create":{}}
{"name":"北京市西城区展览路医院","location":{"type":"point","coordinates":[116.355457,39.943051]},"address":"北京市西城区西直门外大街桃柳园西巷16号","lv":"二级","district":"西城区"}
{"create":{}}
{"name":"北京长安中西医结合医院","location":{"type":"point","coordinates":[116.369154,39.889544]},"address":"北京市西城区枣林前街19号","lv":"二级","district":"西城区"}
{"create":{}}
{"name":"北京瑞安康复医院","location":{"type":"point","coordinates":[116.351898,39.880958]},"address":"北京市西城区鸭子桥路35号","lv":"二级","district":"西城区"}
{"create":{}}
{"name":"北京瑞城口腔医院","location":{"type":"point","coordinates":[116.379581,39.920413]},"address":"北京市西城区西单北大街109号西西友谊酒店6层","lv":"二级","district":"西城区"}
{"create":{}}
{"name":"北京家圆医院","location":{"type":"point","coordinates":[116.373855,39.936931]},"address":"北京市西城区赵登禹路富国街2号","lv":"二级","district":"西城区"}
{"create":{}}
{"name":"北京市监狱管理局中心医院","location":{"type":"point","coordinates":[116.376819,39.877609]},"address":"北京市西城区右安门东街9号 ","lv":"二甲","district":"西城区"}
{"create":{}}
{"name":"北京京坛医院","location":{"type":"point","coordinates":[116.419983,39.870454]},"address":"北京市东城区安乐林路10号","lv":"二甲","district":"东城区"}
{"create":{}}
{"name":"北京市普仁医院","location":{"type":"point","coordinates":[116.426913,39.901015]},"address":"北京市东城区崇文门外大街100号","lv":"二甲","district":"东城区"}
{"create":{}}
{"name":"北京市隆福医院","location":{"type":"point","coordinates":[116.417677,39.933]},"address":"北京市东城区美术馆东街18号","lv":"二甲","district":"东城区"}
{"create":{}}
{"name":"北京市第六医院","location":{"type":"point","coordinates":[116.419312,39.948886]},"address":"北京市东城区交道口北二条36号","lv":"二甲","district":"东城区"}
{"create":{}}
{"name":"北京市东城区第一妇幼保健院","location":{"type":"point","coordinates":[116.415672,39.941263]},"address":"北京市东城区交道口南大街136号","lv":"二甲","district":"东城区"}
{"create":{}}
{"name":"北京市东城区妇幼保健院(南院区)","location":{"type":"point","coordinates":[116.432215,39.893448]},"address":"北京市东城区法华南里25号","lv":"二甲","district":"东城区"}
{"create":{}}
{"name":"北京市鼓楼中医医院(北院区)","location":{"type":"point","coordinates":[116.404271,39.950674]},"address":"北京市东城区豆腐池胡同13号","lv":"二甲","district":"东城区"}
{"create":{}}
{"name":"北京市第六医院(二部)","location":{"type":"point","coordinates":[116.429672,39.946535]},"address":"北京市东城区东直门内大街184号","lv":"二甲","district":"东城区"}
{"create":{}}
{"name":"北京市鼓楼中医医院(南院区)","location":{"type":"point","coordinates":[116.419779,39.87124]},"address":"北京市东城区安乐林路","lv":"二甲","district":"东城区"}
{"create":{}}
{"name":"北京同仁堂中医医院","location":{"type":"point","coordinates":[116.415866,39.905059]},"address":"北京市东城区西打磨厂街46号","lv":"二级","district":"东城区"}
{"create":{}}
{"name":"北京恒和中西医结合医院","location":{"type":"point","coordinates":[116.429879,39.917436]},"address":"北京市东城区西总布胡同46号","lv":"二级","district":"东城区"}
{"create":{}}
{"name":"北京市东城区精神卫生保健院","location":{"type":"point","coordinates":[116.447068,39.948949]},"address":"北京市东城区东直门外大街察慈小区7号楼","lv":"二级","district":"东城区"}
{"create":{}}
{"name":"东城区第一人民医院","location":{"type":"point","coordinates":[116.407652,39.870822]},"address":"北京市东城区永定门外大街130号","lv":"二级","district":"东城区"}
{"create":{}}
{"name":"中国人民解放军六六四00部队医院","location":{"type":"point","coordinates":[116.273424,39.910841]},"address":"北京市海淀区五孔桥20号","lv":"二甲","district":"海淀区"}
{"create":{}}
{"name":"北京市海淀区精神卫生防治院","location":{"type":"point","coordinates":[116.16595,40.085669]},"address":"北京市海淀区青龙桥筹胡同甲14号北","lv":"二甲","district":"海淀区"}
{"create":{}}
{"name":"中国人民解放军五一一一二医院","location":{"type":"point","coordinates":[116.27346,39.912183]},"address":"北京市海淀区永定路东街16号","lv":"二甲","district":"海淀区"}
{"create":{}}
{"name":"北京市中关村医院","location":{"type":"point","coordinates":[116.327217,39.985776]},"address":"北京市海淀区中关村南路12号","lv":"二甲","district":"海淀区"}
{"create":{}}
{"name":"北京市海淀区妇幼保健院","location":{"type":"point","coordinates":[116.3087,39.981547]},"address":"北京市海淀区海淀南路33号","lv":"二甲","district":"海淀区"}
{"create":{}}
{"name":"北京市海淀区妇幼保健院(东南院区)","location":{"type":"point","coordinates":[116.312645,39.978294]},"address":"北京市海淀区苏州街53号","lv":"二甲","district":"海淀区"}
{"create":{}}
{"name":"清华大学医院","location":{"type":"point","coordinates":[116.32475,40.008706]},"address":"北京市海淀区双清路30号清华大学清华园内","lv":"二甲","district":"海淀区"}
{"create":{}}
{"name":"中国人民解放军第三一六医院","location":{"type":"point","coordinates":[116.245631,40.008296]},"address":"北京市海淀区香山路娘娘府甲2号","lv":"二甲","district":"海淀区"}
{"create":{}}
{"name":"北京市化工职业病防治院","location":{"type":"point","coordinates":[116.214831,39.998063]},"address":"北京市海淀区一棵松路香山一棵松50号","lv":"二甲","district":"海淀区"}
{"create":{}}
{"name":"北京四季青医院","location":{"type":"point","coordinates":[116.285255,39.962649]},"address":"北京市海淀区远大路32号","lv":"二级","district":"海淀区"}
{"create":{}}
{"name":"北京市上地医院","location":{"type":"point","coordinates":[116.305278,40.030334]},"address":"北京市海淀区农大南路树村西街甲6号","lv":"二级","district":"海淀区"}
{"create":{}}
{"name":"北京水利医院","location":{"type":"point","coordinates":[116.314589,39.919512]},"address":"北京市海淀区玉渊潭南路19号","lv":"二级","district":"海淀区"}
{"create":{}}
{"name":"北京圣宝妇产医院","location":{"type":"point","coordinates":[116.352543,40.041625]},"address":"北京市海淀区永泰庄北路36号2号楼","lv":"二级","district":"海淀区"}
{"create":{}}
{"name":"北京优颐口腔医院","location":{"type":"point","coordinates":[116.3069,39.922461]},"address":"北京市海淀区翠微路翠微北里罗道庄11号楼1栋","lv":"二级","district":"海淀区"}
{"create":{}}
{"name":"北京市社会福利医院","location":{"type":"point","coordinates":[116.350729,40.032866]},"address":"北京市海淀区清河三街52号","lv":"二级","district":"海淀区"}
{"create":{}}
{"name":"北京大学社区卫生服务中心","location":{"type":"point","coordinates":[116.320837,40.002873]},"address":"北京市海淀区颐和园路5号","lv":"二级","district":"海淀区"}
{"create":{}}
{"name":"北京市海淀区同步中医骨科医院","location":{"type":"point","coordinates":[116.27826,39.934491]},"address":"北京市海淀区五孔桥田村路8号8幢1-6层","lv":"二级","district":"海淀区"}
{"create":{}}
{"name":"北京华医中西医结合皮肤病医院","location":{"type":"point","coordinates":[116.281196,39.961771]},"address":"北京市海淀区西四环北路29号","lv":"二级","district":"海淀区"}
{"create":{}}
{"name":"北京太和妇产医院","location":{"type":"point","coordinates":[116.264722,39.982754]},"address":"北京市海淀区闵庄路3号玉泉慧谷9-1号楼","lv":"二级","district":"海淀区"}
{"create":{}}
{"name":"北京宝岛妇产医院","location":{"type":"point","coordinates":[116.376246,39.973309]},"address":"北京市海淀区新街口外大街1号","lv":"二级","district":"海淀区"}
{"create":{}}
{"name":"北京万柳美中宜和妇儿医院","location":{"type":"point","coordinates":[116.302065,39.976517]},"address":"北京市海淀区万柳中路7号","lv":"二级","district":"海淀区"}
{"create":{}}
{"name":"北京怡德医院","location":{"type":"point","coordinates":[116.286497,39.956844]},"address":"北京市海淀区昆明湖南路51号E座","lv":"二级","district":"海淀区"}
{"create":{}}
{"name":"北京康泽肿瘤医院","location":{"type":"point","coordinates":[116.349994,40.026548]},"address":"北京市海淀区双清路八家郊野公园秀良国际大厦","lv":"二级","district":"海淀区"}
{"create":{}}
{"name":"北京市朝阳区中医医院","location":{"type":"point","coordinates":[116.451992,39.932234]},"address":"北京市朝阳区工人体育场南路6号","lv":"二甲","district":"朝阳区"}
{"create":{}}
{"name":"北京大学第三医院(首都国际机场院区)","location":{"type":"point","coordinates":[116.603046,40.057095]},"address":"北京市朝阳区岗山路9号","lv":"二甲","district":"朝阳区"}
{"create":{}}
{"name":"北京国医堂中医院","location":{"type":"point","coordinates":[116.435242,39.976159]},"address":"北京市朝阳区北三环东路11号","lv":"二甲","district":"朝阳区"}
{"create":{}}
{"name":"北京藏医院","location":{"type":"point","coordinates":[116.420409,39.986624]},"address":"北京市朝阳区安外小关北里218号","lv":"二甲","district":"朝阳区"}
{"create":{}}
{"name":"中国航空工业中心医院","location":{"type":"point","coordinates":[116.424885,40.035404]},"address":"北京市朝阳区安外北苑3号院","lv":"二甲","district":"朝阳区"}
{"create":{}}
{"name":"北京朝阳三环肿瘤医院","location":{"type":"point","coordinates":[116.470447,39.863001]},"address":"北京市朝阳区十里河352号","lv":"二甲","district":"朝阳区"}
{"create":{}}
{"name":"北京市红十字新华医院","location":{"type":"point","coordinates":[116.449445,39.926224]},"address":"北京市朝阳区首钢冶金机械厂路口","lv":"二甲","district":"朝阳区"}
{"create":{}}
{"name":"黄寺美容外科医院","location":{"type":"point","coordinates":[116.399177,39.969614]},"address":"北京市朝阳区安外大街9号","lv":"二甲","district":"朝阳区"}
{"create":{}}
{"name":"北京朝阳中西医结合医院","location":{"type":"point","coordinates":[116.438466,39.989829]},"address":"北京市朝阳区芍药居北里315号楼29号","lv":"二甲","district":"朝阳区"}
{"create":{}}
{"name":"北京市隆福医院(北苑院区)","location":{"type":"point","coordinates":[116.4288,40.040667]},"address":"北京市朝阳区北苑路5号院606号楼","lv":"二甲","district":"朝阳区"}
{"create":{}}
{"name":"北京市朝阳区妇幼保健院","location":{"type":"point","coordinates":[116.463432,39.880106]},"address":"北京市朝阳区华威路潘家园华威里25号","lv":"二甲","district":"朝阳区"}
{"create":{}}
{"name":"北京市老年病医院","location":{"type":"point","coordinates":[116.392086,39.987445]},"address":"北京市朝阳区中轴东路华严北里甲2号","lv":"二甲","district":"朝阳区"}
{"create":{}}
{"name":"北京和睦家医院","location":{"type":"point","coordinates":[116.4917,39.980907]},"address":"北京市朝阳区将台路2号","lv":"二级","district":"朝阳区"}
{"create":{}}
{"name":"北京市朝阳区双桥医院","location":{"type":"point","coordinates":[116.612566,39.89859]},"address":"北京市朝阳区双桥东路","lv":"二级","district":"朝阳区"}
{"create":{}}
{"name":"北京新世纪妇儿医院","location":{"type":"point","coordinates":[116.464832,40.016525]},"address":"北京市朝阳区望京北路51号院","lv":"二级","district":"朝阳区"}
{"create":{}}
{"name":"北京市朝阳区桓兴肿瘤医院","location":{"type":"point","coordinates":[116.479609,39.845674]},"address":"北京市朝阳区十八里店乡吕家营南里甲1号","lv":"二级","district":"朝阳区"}
{"create":{}}
{"name":"北京四惠中医医院","location":{"type":"point","coordinates":[116.505017,39.911112]},"address":"北京市朝阳区惠河南街1092号","lv":"二级","district":"朝阳区"}
{"create":{}}
{"name":"北京嫣然天使儿童医院","location":{"type":"point","coordinates":[116.490467,40.002728]},"address":"北京市朝阳区望京东园519号楼","lv":"二级","district":"朝阳区"}
{"create":{}}
{"name":"北京和睦家康复医院","location":{"type":"point","coordinates":[116.522434,39.956618]},"address":"北京市朝阳区姚家园北二路1号","lv":"二级","district":"朝阳区"}
{"create":{}}
{"name":"北京优联医院","location":{"type":"point","coordinates":[116.49201,39.86887]},"address":"北京市朝阳区东四环南路53号院1号楼1层部分3~11层部分","lv":"二级","district":"朝阳区"}
{"create":{}}
{"name":"北京市朝阳区第三医院","location":{"type":"point","coordinates":[116.609878,39.893322]},"address":"北京市朝阳区双桥南路甲8号","lv":"二级","district":"朝阳区"}
{"create":{}}
{"name":"北京伟达中医肿瘤医院","location":{"type":"point","coordinates":[116.514479,39.882082]},"address":"北京市朝阳区王四营乡官庄大队官庄路100号","lv":"二级","district":"朝阳区"}
{"create":{}}
{"name":"北京玛丽妇儿医院","location":{"type":"point","coordinates":[116.437498,39.965963]},"address":"北京市朝阳区和平里北街5号","lv":"二级","district":"朝阳区"}
{"create":{}}
{"name":"瑞泰口腔医院(北苑总院店)","location":{"type":"point","coordinates":[116.42113,40.045571]},"address":"北京市朝阳区北苑路媒体村天居园一号楼","lv":"二级","district":"朝阳区"}
{"create":{}}
{"name":"北京精诚博爱康复医院","location":{"type":"point","coordinates":[116.515736,40.005985]},"address":"北京市朝阳区崔各庄乡南皋路188号","lv":"二级","district":"朝阳区"}
{"create":{}}
{"name":"北京麦瑞骨科医院","location":{"type":"point","coordinates":[116.424944,40.029499]},"address":"北京市朝阳区北苑路甲1号院","lv":"二级","district":"朝阳区"}
{"create":{}}
{"name":"北京美中宜和妇儿医院(亚运村院区)","location":{"type":"point","coordinates":[116.421724,40.006892]},"address":"北京市朝阳区北苑路安慧北里逸园5号楼","lv":"二级","district":"朝阳区"}
{"create":{}}
{"name":"北京凤凰妇儿医院","location":{"type":"point","coordinates":[116.494164,39.977269]},"address":"北京市朝阳区将台西路18号","lv":"二级","district":"朝阳区"}
{"create":{}}
{"name":"北京美中宜和妇儿医院(丽都院区)","location":{"type":"point","coordinates":[116.484801,39.977354]},"address":"北京市朝阳区将台西路9-9号","lv":"二级","district":"朝阳区"}
{"create":{}}
{"name":"北京俪婴妇产医院","location":{"type":"point","coordinates":[116.527555,39.931933]},"address":"北京市朝阳区朝阳北路雅成一里16号楼内","lv":"二级","district":"朝阳区"}
{"create":{}}
{"name":"北京百子湾和美妇儿医院","location":{"type":"point","coordinates":[116.498409,39.902588]},"address":"北京市朝阳区百子湾南二路18号","lv":"二级","district":"朝阳区"}
{"create":{}}
{"name":"北京和美妇儿医院","location":{"type":"point","coordinates":[116.415513,39.986048]},"address":"北京市朝阳区北苑路安外小关北里甲2号","lv":"二级","district":"朝阳区"}
{"create":{}}
{"name":"北京光熙康复医院","location":{"type":"point","coordinates":[116.442206,39.971905]},"address":"北京市朝阳区光熙门北里22号北楼","lv":"二级","district":"朝阳区"}
{"create":{}}
{"name":"北京年轮中医骨科医院","location":{"type":"point","coordinates":[116.501396,39.928177]},"address":"北京市朝阳区八里庄路八里庄北里87-89号","lv":"二级","district":"朝阳区"}
{"create":{}}
{"name":"北京希玛林顺潮眼科医院","location":{"type":"point","coordinates":[116.548048,39.919118]},"address":"北京市朝阳区建国路27号院2号楼一层105二层205与三层","lv":"二级","district":"朝阳区"}
{"create":{}}
{"name":"北京丰台医院","location":{"type":"point","coordinates":[116.301813,39.848904]},"address":"北京市丰台区丰台南路99号","lv":"二甲","district":"丰台区"}
{"create":{}}
{"name":"北京国济中医医院","location":{"type":"point","coordinates":[116.317836,39.901732]},"address":"北京市丰台区莲花池东路132号","lv":"二甲","district":"丰台区"}
{"create":{}}
{"name":"北京丰台右安门医院","location":{"type":"point","coordinates":[116.368475,39.865296]},"address":"北京市丰台区右安门外大街199号","lv":"二级","district":"丰台区"}
{"create":{}}
{"name":"北京市丰台区妇幼保健院(总院)","location":{"type":"point","coordinates":[116.371476,39.870692]},"address":"北京市丰台区右安门外大街开阳里三区1号","lv":"二级","district":"丰台区"}
{"create":{}}
{"name":"中国航天科工集团七三一医院","location":{"type":"point","coordinates":[116.177339,39.815202]},"address":"北京市丰台区云岗镇云岗路云岗南里3号院","lv":"二级","district":"丰台区"}
{"create":{}}
{"name":"北京市丰台区南苑医院","location":{"type":"point","coordinates":[116.406155,39.812283]},"address":"北京市丰台区南苑镇公所胡同3号","lv":"二级","district":"丰台区"}
{"create":{}}
{"name":"北京长峰医院","location":{"type":"point","coordinates":[116.287369,39.895573]},"address":"北京市丰台区靛厂路291号","lv":"二级","district":"丰台区"}
{"create":{}}
{"name":"北京市丰台区铁营医院","location":{"type":"point","coordinates":[116.429534,39.862935]},"address":"北京市丰台区横七条1号","lv":"二级","district":"丰台区"}
{"create":{}}
{"name":"北京博仁医院","location":{"type":"point","coordinates":[116.344462,39.848718]},"address":"北京市丰台区南三环郑王坟南6号ABC座","lv":"二级","district":"丰台区"}
{"create":{}}
{"name":"北京汇安中西医结合医院","location":{"type":"point","coordinates":[116.37806,39.84857]},"address":"北京市丰台区马家堡西路26号院1号楼内","lv":"二级","district":"丰台区"}
{"create":{}}
{"name":"北京京西肿瘤医院","location":{"type":"point","coordinates":[116.299945,39.890063]},"address":"北京市丰台区万丰路69号","lv":"二级","district":"丰台区"}
{"create":{}}
{"name":"北京劲松口腔医院","location":{"type":"point","coordinates":[116.445035,39.872366]},"address":"北京市丰台区方庄路5号楼芳城园(三区)","lv":"二级","district":"丰台区"}
{"create":{}}
{"name":"北京市红十字会和平骨科医院","location":{"type":"point","coordinates":[116.29137,39.878079]},"address":"北京市丰台区丰台路口东里198号","lv":"二级","district":"丰台区"}
{"create":{}}
{"name":"北京维尔丰台口腔医院","location":{"type":"point","coordinates":[116.438914,39.851498]},"address":"北京市丰台区政馨园三区6号楼底商","lv":"二级","district":"丰台区"}
{"create":{}}
{"name":"北京市石景山医院","location":{"type":"point","coordinates":[116.219883,39.912093]},"address":"北京市石景山区石景山路24号","lv":"二甲","district":"石景山区"}
{"create":{}}
{"name":"清华大学玉泉医院","location":{"type":"point","coordinates":[116.25308,39.914113]},"address":"北京市石景山区石景山路5号","lv":"二级","district":"石景山区"}
{"create":{}}
{"name":"北京市石景山区妇幼保健院","location":{"type":"point","coordinates":[116.226046,39.908108]},"address":"北京市石景山区新岚大厦北路依翠园5号","lv":"二级","district":"石景山区"}
{"create":{}}
{"name":"北京市石景山区妇幼保健院(妇幼保健计划生育服务中心)","location":{"type":"point","coordinates":[116.225714,39.908147]},"address":"北京市石景山区依翠园5号","lv":"二级","district":"石景山区"}
{"create":{}}
{"name":"北京英智京西康复医院","location":{"type":"point","coordinates":[116.198198,39.932]},"address":"北京市石景山区杨庄北区中街29栋1-3层","lv":"二级","district":"石景山区"}
{"create":{}}
{"name":"北京侯丽萍风湿病中医医院","location":{"type":"point","coordinates":[116.242224,40.212466]},"address":"北京市昌平区科技园区振兴路8号","lv":"二甲","district":"昌平区"}
{"create":{}}
{"name":"北京国医堂中医医院","location":{"type":"point","coordinates":[116.438941,40.070766]},"address":"北京市昌平区天通东苑一区60号楼","lv":"二甲","district":"昌平区"}
{"create":{}}
{"name":"北京市昌平区中医院","location":{"type":"point","coordinates":[116.248065,40.222346]},"address":"北京市昌平区城区镇东环路南段","lv":"二甲","district":"昌平区"}
{"create":{}}
{"name":"北京市隆福医院(北院区)","location":{"type":"point","coordinates":[116.411977,40.068855]},"address":"北京市昌平区东小口镇中滩村中滩村路290号后院","lv":"二甲","district":"昌平区"}
{"create":{}}
{"name":"北京市昌平区妇幼保健院","location":{"type":"point","coordinates":[116.246536,40.236308]},"address":"北京市昌平区北环路1号","lv":"二级","district":"昌平区"}
{"create":{}}
{"name":"北京市昌平区南口医院","location":{"type":"point","coordinates":[116.144713,40.239261]},"address":"北京市昌平区南口镇南辛路2号","lv":"二级","district":"昌平区"}
{"create":{}}
{"name":"北京泰康燕园康复医院","location":{"type":"point","coordinates":[116.28167,40.212958]},"address":"北京市昌平区南邵镇景荣街2号","lv":"二级","district":"昌平区"}
{"create":{}}
{"name":"北京欢乐银河口腔医院","location":{"type":"point","coordinates":[116.318599,40.090331]},"address":"北京市昌平区回南路九号院41号楼","lv":"二级","district":"昌平区"}
{"create":{}}
{"name":"北京民康医院","location":{"type":"point","coordinates":[116.278844,40.147718]},"address":"北京市昌平区沙河镇032县道北大桥东","lv":"二级","district":"昌平区"}
{"create":{}}
{"name":"北京保法肿瘤医院","location":{"type":"point","coordinates":[116.316578,40.15909]},"address":"北京市昌平区百善镇上东廓村尚上路王庄工业园","lv":"二级","district":"昌平区"}
{"create":{}}
{"name":"北京皇城股骨头坏死专科医院","location":{"type":"point","coordinates":[116.230043,40.23015]},"address":"北京市昌平区西关路27号","lv":"二级","district":"昌平区"}
{"create":{}}
{"name":"北京市昌平区沙河医院","location":{"type":"point","coordinates":[116.280946,40.130684]},"address":"北京市昌平区沙河镇扶京门路22号","lv":"二级","district":"昌平区"}
{"create":{}}
{"name":"北京龙山中医医院","location":{"type":"point","coordinates":[116.251505,40.206847]},"address":"北京市昌平区城南街道白浮泉路19号","lv":"二级","district":"昌平区"}
{"create":{}}
{"name":"北京市昌平区天通苑中医医院","location":{"type":"point","coordinates":[116.440718,40.074738]},"address":"北京市昌平区太平庄中一街天通苑东一区9号楼内","lv":"二级","district":"昌平区"}
{"create":{}}
{"name":"北京天通宽街中医医院","location":{"type":"point","coordinates":[116.443145,40.078162]},"address":"北京市昌平区太平庄东一路天通苑东三区2号楼1-3-4-5层","lv":"二级","district":"昌平区"}
{"create":{}}
{"name":"北京同善堂中医医院","location":{"type":"point","coordinates":[116.219263,40.338075]},"address":"北京市昌平区十三陵镇石梨路锥石口村北700米院内1号楼3号楼","lv":"二级","district":"昌平区"}
{"create":{}}
{"name":"北京市顺义区妇幼保健院","location":{"type":"point","coordinates":[116.679653,40.120678]},"address":"北京市顺义区顺康路1号","lv":"二甲","district":"顺义区"}
{"create":{}}
{"name":"北京欢乐顺意口腔医院","location":{"type":"point","coordinates":[116.67741,40.132628]},"address":"北京市顺义区右堤路仁和地区裕龙三区27号楼森德兰国际大厦3楼","lv":"二级","district":"顺义区"}
{"create":{}}
{"name":"北京市顺义区精神病医院","location":{"type":"point","coordinates":[116.845912,40.15796]},"address":"北京市顺义区杨镇小学东","lv":"二级","district":"顺义区"}
{"create":{}}
{"name":"中国人民解放军六六0五五医院","location":{"type":"point","coordinates":[116.671292,40.129484]},"address":"北京市顺义区拥军路5号","lv":"二甲","district":"顺义区"}
{"create":{}}
{"name":"北京潮白河骨伤科医院","location":{"type":"point","coordinates":[116.763843,40.10826]},"address":"北京市顺义区李遂北口西北200米","lv":"二甲","district":"顺义区"}
{"create":{}}
{"name":"北京市顺义区空港医院","location":{"type":"point","coordinates":[116.550329,40.113674]},"address":"北京市顺义区后沙峪镇双裕街49号","lv":"二级","district":"顺义区"}
{"create":{}}
{"name":"中国人民解放军第二六三医院","location":{"type":"point","coordinates":[116.653477,39.92141]},"address":"北京市通州区永顺西街87号","lv":"二甲","district":"通州区"}
{"create":{}}
{"name":"北京市通州区妇幼保健院","location":{"type":"point","coordinates":[116.689306,39.893258]},"address":"北京市通州区玉桥中路124号","lv":"二甲","district":"通州区"}
{"create":{}}
{"name":"首都医科大学附属北京友谊医院(通州院区)","location":{"type":"point","coordinates":[116.689393,39.940722]},"address":"北京市通州区潞苑东路101号院","lv":"二级","district":"通州区"}
{"create":{}}
{"name":"北京市通州区中西医结合医院","location":{"type":"point","coordinates":[116.668739,39.906736]},"address":"北京市通州区车站路89号","lv":"二级","district":"通州区"}
{"create":{}}
{"name":"北京市通州区新华医院","location":{"type":"point","coordinates":[116.695335,39.899799]},"address":"北京市通州区乔庄商业街47号","lv":"二级","district":"通州区"}
{"create":{}}
{"name":"北京德泽口腔医院","location":{"type":"point","coordinates":[116.697665,39.921379]},"address":"北京市通州区通胡大街15号院7号楼","lv":"二级","district":"通州区"}
{"create":{}}
{"name":"北京先宝妇产医院","location":{"type":"point","coordinates":[116.664508,39.875051]},"address":"北京市通州区九棵树中路998号","lv":"二级","district":"通州区"}
{"create":{}}
{"name":"北京安娜贝儿妇产医院","location":{"type":"point","coordinates":[116.727937,39.861372]},"address":"北京市通州区工业开发区光华路15号","lv":"二级","district":"通州区"}
{"create":{}}
{"name":"北京安琪妇产医院","location":{"type":"point","coordinates":[116.667964,39.881133]},"address":"北京市通州区云景南大街104号","lv":"二级","district":"通州区"}
{"create":{}}
{"name":"北京靓美口腔医院","location":{"type":"point","coordinates":[116.641396,39.89108]},"address":"北京市通州区怡乐中路299号院1号楼B102-201-301号","lv":"二级","district":"通州区"}
{"create":{}}
{"name":"北京市大兴区中医医院","location":{"type":"point","coordinates":[116.346587,39.749921]},"address":"北京市大兴区黄村兴丰大街二段138号","lv":"二甲","district":"大兴区"}
{"create":{}}
{"name":"北京市仁和医院","location":{"type":"point","coordinates":[116.344826,39.747783]},"address":"北京市大兴区兴丰大街1号","lv":"二甲","district":"大兴区"}
{"create":{}}
{"name":"北京市大兴区妇幼保健院","location":{"type":"point","coordinates":[116.346533,39.742729]},"address":"北京市大兴区黄村镇兴丰大街三段56号","lv":"二甲","district":"大兴区"}
{"create":{}}
{"name":"北京市大兴区心康医院","location":{"type":"point","coordinates":[116.338368,39.711715]},"address":"北京市大兴区黄村镇黄良路口北侧","lv":"二甲","district":"大兴区"}
{"create":{}}
{"name":"国家康复辅具研究中心附属康复医院","location":{"type":"point","coordinates":[116.503219,39.810105]},"address":"北京市大兴区荣华中路1号","lv":"二级","district":"大兴区"}
{"create":{}}
{"name":"北京华大肾安医院","location":{"type":"point","coordinates":[116.410913,39.773034]},"address":"北京市大兴区黄亦路23号","lv":"二甲","district":"大兴区"}
{"create":{}}
{"name":"北京市大兴区精神病院","location":{"type":"point","coordinates":[116.338031,39.711334]},"address":"北京市大兴区矿林庄居委会","lv":"二甲","district":"大兴区"}
{"create":{}}
{"name":"北京普祥中医肿瘤医院","location":{"type":"point","coordinates":[116.481108,39.814154]},"address":"北京市大兴区亦庄镇成寿寺路2号","lv":"二级","district":"大兴区"}
{"create":{}}
{"name":"永康口腔医院","location":{"type":"point","coordinates":[116.142112,39.740836]},"address":"北京市房山区良乡西潞北大街26号南侧一层1-10号","lv":"二级","district":"房山区"}
{"create":{}}
{"name":"北京市房山区第一医院","location":{"type":"point","coordinates":[115.999242,39.699947]},"address":"北京市房山区城关镇房窑路6号","lv":"二甲","district":"房山区"}
{"create":{}}
{"name":"北京市房山区妇幼保健院","location":{"type":"point","coordinates":[116.133944,39.734852]},"address":"北京市房山区良乡苏庄东街5号","lv":"二甲","district":"房山区"}
{"create":{}}
{"name":"北京市房山区第一医院分院房山区老年病医院","location":{"type":"point","coordinates":[116.128681,39.728783]},"address":"北京市房山区良乡镇长虹西路51号","lv":"二甲","district":"房山区"}
{"create":{}}
{"name":"北京市房山区第一医院(体检中心)","location":{"type":"point","coordinates":[115.998691,39.703838]},"address":"北京市房山区城关镇兴房大街5号","lv":"二甲","district":"房山区"}
{"create":{}}
{"name":"北京市房山区第一医院分院(康复医院)","location":{"type":"point","coordinates":[116.041073,39.724936]},"address":"北京市房山区阎村镇大件路1-7号","lv":"二甲","district":"房山区"}
{"create":{}}
{"name":"北京同济东方中西医结合医院","location":{"type":"point","coordinates":[116.084567,39.728057]},"address":"北京市房山区阎村镇大紫草坞村","lv":"二甲","district":"房山区"}
{"create":{}}
{"name":"平谷区妇幼保健院","location":{"type":"point","coordinates":[117.13222,40.144558]},"address":"北京市平谷区南岔子街49号","lv":"二级","district":"平谷区"}
{"create":{}}
{"name":"北京市平谷岳协医院","location":{"type":"point","coordinates":[117.107962,40.147034]},"address":"北京市平谷区府前西街13号","lv":"二级","district":"平谷区"}
{"create":{}}
{"name":"北京市平谷区京东口腔医院","location":{"type":"point","coordinates":[117.111661,40.140792]},"address":"北京市平谷区林荫南街9号","lv":"二级","district":"平谷区"}
{"create":{}}
{"name":"北京市门头沟区爱暮家老年养护中心","location":{"type":"point","coordinates":[116.068305,39.935503]},"address":"北京市门头沟区圈外大街73号","lv":"二级","district":"门头沟区"}
{"create":{}}
{"name":"北京市门头沟区龙泉医院","location":{"type":"point","coordinates":[116.094516,39.948589]},"address":"北京市门头沟区门头沟路42号","lv":"二级","district":"门头沟区"}
{"create":{}}
{"name":"北京市门头沟区医院","location":{"type":"point","coordinates":[116.108415,39.951122]},"address":"北京市门头沟区河滩桥东街10号","lv":"二级","district":"门头沟区"}
{"create":{}}
{"name":"北京市门头沟区中医医院","location":{"type":"point","coordinates":[116.111803,39.940122]},"address":"北京市门头沟区新桥南大街3号","lv":"二甲","district":"门头沟区"}
{"create":{}}
{"name":"北京市门头沟区妇幼保健院","location":{"type":"point","coordinates":[116.12339,39.928546]},"address":"北京市门头沟区石龙北路10号院","lv":"二甲","district":"门头沟区"}
{"create":{}}
{"name":"北京市门头沟区斋堂医院","location":{"type":"point","coordinates":[115.704313,39.979487]},"address":"北京市门头沟区斋堂镇斋堂大街东斋堂村33号","lv":"二甲","district":"门头沟区"}
{"create":{}}
{"name":"北京市延庆区医院","location":{"type":"point","coordinates":[115.980527,40.46864]},"address":"北京市延庆区东顺城街28号","lv":"二甲","district":"延庆区"}
{"create":{}}
{"name":"北京中医医院延庆医院","location":{"type":"point","coordinates":[115.989882,40.476595]},"address":"北京市延庆区新城街11号","lv":"二甲","district":"延庆区"}
{"create":{}}
{"name":"北京市延庆区妇幼保健院","location":{"type":"point","coordinates":[115.992145,40.477951]},"address":"北京市延庆区延庆镇庆园街8号","lv":"二甲","district":"延庆区"}
{"create":{}}
{"name":"北京京北健永口腔医院","location":{"type":"point","coordinates":[116.645223,40.334864]},"address":"北京市怀柔区滨湖南街6号","lv":"二级","district":"怀柔区"}
{"create":{}}
{"name":"北京市怀柔区第一医院","location":{"type":"point","coordinates":[116.636165,40.319343]},"address":"北京市怀柔区青春路1号","lv":"二甲","district":"怀柔区"}
{"create":{}}
{"name":"北京市怀柔区第二医院","location":{"type":"point","coordinates":[116.65182,40.743612]},"address":"北京市怀柔区汤河口镇汤河口大街5号","lv":"二级","district":"怀柔区"}
{"create":{}}
{"name":"北京市怀柔区中医医院","location":{"type":"point","coordinates":[116.642212,40.325534]},"address":"北京市怀柔区后横街1号","lv":"二甲","district":"怀柔区"}
{"create":{}}
{"name":"北京怀柔医院","location":{"type":"point","coordinates":[116.667075,40.323618]},"address":"北京市怀柔区永泰北街9号院","lv":"二甲","district":"怀柔区"}
{"create":{}}
{"name":"北京市怀柔区妇幼保健院","location":{"type":"point","coordinates":[116.646052,40.340926]},"address":"北京市怀柔区迎宾北路38号","lv":"二甲","district":"怀柔区"}
{"create":{}}
{"name":"北京市怀柔安佳医院","location":{"type":"point","coordinates":[116.694056,40.41504]},"address":"北京市怀柔区怀北镇火车站路1区23号","lv":"二甲","district":"怀柔区"}
{"create":{}}
{"name":"北京康益德中西医结合肺科医院","location":{"type":"point","coordinates":[116.652258,40.330469]},"address":"北京市怀柔区开放路50号","lv":"二甲","district":"怀柔区"}
{"create":{}}
{"name":"北京市密云区医院","location":{"type":"point","coordinates":[116.876749,40.381177]},"address":"北京市密云区阳光街383号","lv":"二甲","district":"密云区"}
{"create":{}}
{"name":"北京市密云区中医医院","location":{"type":"point","coordinates":[116.857025,40.385655]},"address":"北京市密云区新中街39号","lv":"二甲","district":"密云区"}
{"create":{}}
{"name":"北京市密云区妇幼保健院","location":{"type":"point","coordinates":[116.866826,40.378907]},"address":"北京市密云区新南路56号","lv":"二甲","district":"密云区"}
{"create":{}}
{"name":"渔阳口腔医院","location":{"type":"point","coordinates":[116.860147,40.382771]},"address":"北京市密云区鼓楼东大街23-8-23-9-23-10-23-11-23-12号楼","lv":"二级","district":"密云区"}


POST province_bak/_doc/110101
{
"code": "110101",
"name": "东城区",
"location": {
"type": "polygon",
"coordinates": [
[
[
116.4361716986255,
39.90307453811079
],
[
116.43402871835397,
39.928313709946984
],
[
116.44367992414143,
39.928696658606746
],
[
116.44755207314574,
39.94488432107766
],
[
116.43843106020957,
39.94639217095526
],
[
116.44004134033356,
39.95208581582226
],
[
116.4301385389079,
39.9501265873592
],
[
116.43051133563067,
39.95944259205759
],
[
116.42518565047615,
39.95934253559253
],
[
116.42520073368262,
39.962183889922294
],
[
116.41408189151267,
39.9619886384586
],
[
116.40774204174708,
39.97332911827881
],
[
116.40808924602946,
39.962030037143954
],
[
116.38996409598347,
39.96304872724874
],
[
116.38720654741347,
39.95978933414481
],
[
116.38735511200164,
39.95674171758033
],
[
116.39349629221033,
39.95709245537288
],
[
116.39653353681797,
39.928398481331236
],
[
116.39944754253482,
39.92788749190046
],
[
116.39966164900252,
39.92341105444459
],
[
116.39092966154632,
39.92227051577309
],
[
116.39173496565382,
39.9075665103629
],
[
116.39571024881388,
39.90767774048992
],
[
116.3979840750094,
39.89876868372049
],
[
116.39847241896102,
39.87210864515726
],
[
116.38124731910074,
39.87113732072806
],
[
116.38149269918809,
39.8672666623449
],
[
116.39125060106376,
39.86526224266201
],
[
116.39550716639775,
39.85884339399546
],
[
116.41407777746669,
39.85910402313594
],
[
116.416714203718,
39.86702094433349
],
[
116.41344567216207,
39.87189449449335
],
[
116.44305315617129,
39.87188348290628
],
[
116.44420499157378,
39.888922139543226
],
[
116.45087385639732,
39.89020892285401
],
[
116.44706592648032,
39.894728523402314
],
[
116.44853548789979,
39.90293215968329
],
[
116.4361716986255,
39.90307453811079
]
]
]
}
}
POST province_bak/_doc/110102
{
"code": "110102",
"name": "西城区",
"location": {
"type": "polygon",
"coordinates": [
[
[
116.39610758134049,
39.900172655035355
],
[
116.39571024881388,
39.90767774048992
],
[
116.39173496565382,
39.9075665103629
],
[
116.39092966154632,
39.92227051577309
],
[
116.39966164900252,
39.92341105444459
],
[
116.39944754253482,
39.92788749190046
],
[
116.39653353681797,
39.928398481331236
],
[
116.39349629221033,
39.95709245537288
],
[
116.38735511200164,
39.95674171758033
],
[
116.38720654741347,
39.95978933414481
],
[
116.39418302372793,
39.97302826925413
],
[
116.38134005086229,
39.97260845703548
],
[
116.38323533841226,
39.968039184907084
],
[
116.37039626862412,
39.96750118091906
],
[
116.37202497914909,
39.94880205473829
],
[
116.35643431258609,
39.94409658666829
],
[
116.35567978099004,
39.95176069647899
],
[
116.35155197325554,
39.95054037103911
],
[
116.3506665253818,
39.94304627447719
],
[
116.32813247976877,
39.94245184764824
],
[
116.3331071856597,
39.93780112752404
],
[
116.33589141684983,
39.90391560707227
],
[
116.33453367595742,
39.89699027978525
],
[
116.32590075056711,
39.896877112818665
],
[
116.32120405609768,
39.87516419930816
],
[
116.34314000996228,
39.87591569754024
],
[
116.34408968013395,
39.87377114721315
],
[
116.35024302554473,
39.87413855306821
],
[
116.35205800364606,
39.868934055334755
],
[
116.39847241896102,
39.87210864515726
],
[
116.39610758134049,
39.900172655035355
]
]
]
}
}
POST province_bak/_doc/110105
{
"code": "110105",
"name": "朝阳区",
"location": {
"type": "polygon",
"coordinates": [
[
[
116.6399227904422,
40.00000053890189
],
[
116.63550179505503,
40.00411248156508
],
[
116.63138150022466,
40.00179564797482
],
[
116.62537358798014,
40.004421066583795
],
[
116.62792942772481,
40.00774682176142
],
[
116.6194461035641,
40.01193311408028
],
[
116.59900300669956,
40.015081675416425
],
[
116.5768120198808,
40.028187793420706
],
[
116.57865501722664,
40.0333020771692
],
[
116.57427584710565,
40.03318073136696
],
[
116.57720186473242,
40.029551283424716
],
[
116.56592832167493,
40.038774256855575
],
[
116.55104386527432,
40.04536219053699
],
[
116.5458908402996,
40.050180050219254
],
[
116.55203975524907,
40.053908535387755
],
[
116.54820339410753,
40.06258081165576
],
[
116.54365518752071,
40.05931172695278
],
[
116.5304223357012,
40.069978292485615
],
[
116.51205000596552,
40.070939066556775
],
[
116.49970192035634,
40.080081836912065
],
[
116.48343710985925,
40.08176145125327
],
[
116.47332114319717,
40.08545792504135
],
[
116.46947529548673,
40.09010008259976
],
[
116.46674309672241,
40.090165862305255
],
[
116.46623678247293,
40.08190871432358
],
[
116.46173103574128,
40.080637646925105
],
[
116.46028469664797,
40.06136576260075
],
[
116.4487149651907,
40.05883082478747
],
[
116.42490054855116,
40.06464270846373
],
[
116.4250641772366,
40.06031746704128
],
[
116.40944318388743,
40.0555177344742
],
[
116.40625793302051,
40.04941509287656
],
[
116.40862712828054,
40.04282789196677
],
[
116.4041751747065,
40.038438992883265
],
[
116.3953479719673,
40.03652473233028
],
[
116.39094860721085,
40.04122022640403
],
[
116.3902235235559,
40.03749188417116
],
[
116.3950919987873,
40.03286102882033
],
[
116.35112438740912,
40.02682373363572
],
[
116.35649483597389,
40.023766941026736
],
[
116.35618199843903,
40.02033904289299
],
[
116.38083240432752,
39.987762659043824
],
[
116.38134005086229,
39.97260845703548
],
[
116.39418302372793,
39.97302826925413
],
[
116.38749654614527,
39.96092766484124
],
[
116.38996409598347,
39.96304872724874
],
[
116.40808924602946,
39.962030037143954
],
[
116.4088940068659,
39.97334992404336
],
[
116.41408189151267,
39.9619886384586
],
[
116.42520073368262,
39.962183889922294
],
[
116.42518565047615,
39.95934253559253
],
[
116.43051133563067,
39.95944259205759
],
[
116.4301385389079,
39.9501265873592
],
[
116.44004134033356,
39.95208581582226
],
[
116.43843106020957,
39.94639217095526
],
[
116.44755207314574,
39.94488432107766
],
[
116.44367992414143,
39.928696658606746
],
[
116.43402871835397,
39.928313709946984
],
[
116.4361716986255,
39.90307453811079
],
[
116.44853548789979,
39.90293215968329
],
[
116.44706592648032,
39.894728523402314
],
[
116.4508811830843,
39.89061310011285
],
[
116.44420499157378,
39.888922139543226
],
[
116.44283656142647,
39.86624050456285
],
[
116.4452623920011,
39.86264173507539
],
[
116.45734392459782,
39.860641673690196
],
[
116.46622826619287,
39.854414884651085
],
[
116.4595869032154,
39.84820275094878
],
[
116.45803131777862,
39.85060643993876
],
[
116.44658664483634,
39.84827020175021
],
[
116.447089358521,
39.84131724095903
],
[
116.44095948810882,
39.83947586525764
],
[
116.43644318559984,
39.84113698000112
],
[
116.43140045903058,
39.83254808933205
],
[
116.42515229913138,
39.832605051584714
],
[
116.42515645646752,
39.83017482964065
],
[
116.44022337774582,
39.83001328409976
],
[
116.44410659895462,
39.8203686467817
],
[
116.45375768577317,
39.82281757698048
],
[
116.46336002245401,
39.81434900384321
],
[
116.46890604046682,
39.814457691541406
],
[
116.47433084841477,
39.80955419492742
],
[
116.48546569035784,
39.81287042350926
],
[
116.48982972665931,
39.818947176812
],
[
116.49518595295366,
39.81810900935181
],
[
116.49508919604219,
39.81578200520957
],
[
116.51011218625447,
39.816417452475704
],
[
116.50959716528241,
39.82325106879994
],
[
116.51434223262723,
39.82882283357251
],
[
116.52620715328406,
39.829421316897275
],
[
116.52659181729152,
39.826397413722695
],
[
116.53477472164128,
39.82412334335789
],
[
116.53842218417182,
39.82832727075089
],
[
116.53367261825663,
39.83243946722121
],
[
116.54257627547811,
39.829626863510576
],
[
116.54624923714434,
39.83509289002391
],
[
116.57769847643243,
39.83067656939293
],
[
116.58301265422388,
39.82362107053162
],
[
116.60009836106188,
39.82527115961951
],
[
116.60152114950618,
39.8409641110145
],
[
116.60687647050155,
39.8453897311908
],
[
116.60449585093059,
39.85005644484221
],
[
116.61273545703851,
39.85006193228204
],
[
116.62677393261676,
39.860593853028675
],
[
116.6202661329351,
39.86851307342576
],
[
116.62993995785735,
39.88495985802971
],
[
116.62791130562222,
39.890411815519236
],
[
116.61607658169339,
39.88962072312676
],
[
116.61442884888027,
39.89635282203168
],
[
116.62201719228119,
39.9019298918567
],
[
116.62134833419313,
39.920505120995394
],
[
116.63073691785098,
39.92179744852752
],
[
116.62534266267232,
39.9304790105095
],
[
116.62954267999953,
39.931933854739164
],
[
116.63350296646807,
39.93987852395856
],
[
116.63034707648633,
39.947128855831735
],
[
116.6328381280256,
39.95034427162321
],
[
116.64527097274582,
39.94594694048083
],
[
116.64081190839713,
39.98085750813708
],
[
116.6324534003448,
39.9839765205308
],
[
116.639786059495,
39.99057464960756
],
[
116.6439666010211,
39.98991573487402
],
[
116.6399227904422,
40.00000053890189
]
]
]
}
}
